UC2_Literal,Report Number,Report Date,Location,Beat,Neigborhood,NPU,Lat,Long,
LARCENY-FROM VEHICLE,170590036,02/28/2017,2345 CHESHIRE BRIDGE RD.,212,Lindridge/Martin Manor,F,33.81906,-84.3513,
BURGLARY-NONRES,170590037,02/28/2017,3910 CAMPBELLTON RD SW,413,,P,33.69141,-84.51637,
LARCENY-FROM VEHICLE,170590128,02/28/2017,99 W PACES FERRY RD NW,206,South Tuxedo Park,B,33.84107,-84.38362,
ROBBERY-PEDESTRIAN,170590187,02/28/2017,488 ELBRIDGE DR NW,106,Bankhead,K,33.76892,-84.43287,
LARCENY-FROM VEHICLE,170590359,02/28/2017,3556 EMPIRE BLVD SW,312,Glenrose Heights,Z,33.65717,-84.39095,
AUTO THEFT,170590646,02/28/2017,2689 RIVERS EDGE DR NE,210,Pine Hills,B,33.8281,-84.34865,
AUTO THEFT,170590700,02/28/2017,443 STERLING ST NE,608,Candler Park,N,33.76645,-84.34446,
BURGLARY-RESIDENCE,170590750,02/28/2017,1042 NORTH AVE NE,602,Poncey-Highland,N,33.77132,-84.35333,
LARCENY-FROM VEHICLE,170590760,02/28/2017,621 KENNOLIA DR SW,404,Westwood Terrace,I,33.73818,-84.44926,
AUTO THEFT,170590785,02/28/2017,3871 REDWINE RD SW,414,Princeton Lakes,P,33.66005,-84.50994,
LARCENY-FROM VEHICLE,170590796,02/28/2017,1092 ROSEDALE DR NE,601,Virginia Highland,F,33.78,-84.3516,
AUTO THEFT,170590797,02/28/2017,1646 N PELHAM RD NE,213,Morningside/Lenox Park,F,33.79939,-84.36003,
BURGLARY-RESIDENCE,170590889,02/28/2017,1319 ALLENE AVE SW,301,Capitol View,X,33.71884,-84.41313,
LARCENY-FROM VEHICLE,170590967,02/28/2017,1850 METROPOLITAN PKWY SW,306,Sylvan Hills,X,33.70369,-84.40795,
LARCENY-FROM VEHICLE,170590972,02/28/2017,655 CLEVELAND AVE SW,309,Perkerson,X,33.68138,-84.41055,
LARCENY-FROM VEHICLE,170591130,02/28/2017,1845 PIEDMONT AVE NE,213,Morningside/Lenox Park,F,33.80622,-84.36626,
BURGLARY-RESIDENCE,170591145,02/28/2017,784 MAGNOLIA WAY NW,102,Vine City,L,33.75804,-84.41379,
BURGLARY-RESIDENCE,170591156,02/28/2017,3475 EISENHOWER CIR SE,313,South River Gardens,Z,33.65957,-84.35837,
AGG ASSAULT,170591180,02/28/2017,864 HALL ST NW,109,Center Hill,J,33.77859,-84.46616,
LARCENY-FROM VEHICLE,170591270,02/28/2017,80 JESSE HILL JR DR NE,510,Downtown,M,33.75657,-84.38034,
LARCENY-FROM VEHICLE,170591326,02/28/2017,507 STERLING ST NE,608,Candler Park,N,33.76762,-84.34453,
AGG ASSAULT,170591408,02/28/2017,2412 SANDFALL CT SW,412,Sandlewood Estates,P,33.70594,-84.54335,
BURGLARY-RESIDENCE,170591533,02/28/2017,1463 MACKLONE ST NE,609,Edgewood,O,33.75583,-84.34016,
LARCENY-FROM VEHICLE,170591630,02/28/2017,572 SYDNEY ST SE,605,Grant Park,W,33.74104,-84.36815,
LARCENY-NON VEHICLE,170591640,02/28/2017,595 PIEDMONT AVE NE @PUBLIX - PIEDMONT,603,Old Fourth Ward,M,33.77067,-84.38023,
LARCENY-NON VEHICLE,170591654,02/28/2017,1414 LANSING ST,305,South Atlanta,Y,33.71605,-84.38464,
LARCENY-FROM VEHICLE,170591669,02/28/2017,1571 VENETIAN DR SW,408,Venetian Hills,S,33.71481,-84.44003,
LARCENY-FROM VEHICLE,170591679,02/28/2017,1981 FLAT SHOALS RD SE,612,East Atlanta,W,33.72602,-84.32324,
AUTO THEFT,170591740,02/28/2017,3170 DONALD LEE HOLLOWELL PKWY,112,Collier Heights,I,33.78577,-84.49055,
AUTO THEFT,170591768,02/28/2017,585 MCDANIEL ST SW,303,Mechanicsville,V,33.73896,-84.40206,
ROBBERY-PEDESTRIAN,170591927,02/28/2017,2516 MARTIN L KING JR DR SW,405,Harland Terrace,I,33.75242,-84.47042,
ROBBERY-COMMERCIAL,170591932,02/28/2017,1701 METROPOLITAN PKWY SW,306,Sylvan Hills,X,33.70804,-84.40811,
AUTO THEFT,170591964,02/28/2017,502 PRYOR ST SW,303,Mechanicsville,V,33.74114,-84.39442,
LARCENY-NON VEHICLE,170592001,02/28/2017,585 MCWILLIAMS RD SE,310,Browns Mill Park,Z,33.6887,-84.36924,
ROBBERY-PEDESTRIAN,170592133,02/28/2017,2110 CAMPBELLTON RD SW,409,Campbellton Road,R,33.70577,-84.45812,
LARCENY-FROM VEHICLE,170592135,02/28/2017,858 MAIDEN LN NE,601,Virginia Highland,F,33.77472,-84.35941,
LARCENY-NON VEHICLE,170592218,02/28/2017,1110 WEDGEWOOD DR NW,113,Carey Park,G,33.78543,-84.47608,
ROBBERY-PEDESTRIAN,170592226,02/28/2017,3393 PEACHTREE RD NE @LENOX MALL,210,Lenox,B,33.84676,-84.36212,
LARCENY-FROM VEHICLE,170592250,02/28/2017,3539 NORTHSIDE PKWY NW,202,Randall Mill,A,33.85129,-84.43033,
LARCENY-NON VEHICLE,170592256,02/28/2017,3393 PEACHTREE RD,210,Lenox,B,33.84676,-84.36212,
LARCENY-NON VEHICLE,170592273,02/28/2017,850 OAK ST,401,West End,T,33.74057,-84.4168,
BURGLARY-RESIDENCE,170592308,02/28/2017,565 WELLS ST SW,303,Mechanicsville,V,33.74005,-84.40649,
LARCENY-NON VEHICLE,170592332,02/28/2017,3400 AROUND LENOX DR NE,210,Lenox,B,33.84743,-84.3654,
LARCENY-FROM VEHICLE,170592342,02/28/2017,2798 PEEK RD NW,112,Collier Heights,I,33.77743,-84.47815,
LARCENY-FROM VEHICLE,170592381,02/28/2017,269 POWELL ST SE,606,Cabbagetown,N,33.74725,-84.36598,
AGG ASSAULT,170592387,02/28/2017,3150 MIDDLETON RD NW,111,,I,33.7519,-84.49058,
AGG ASSAULT,170592399,02/28/2017,1233 OAKLAND DR SW,403,Oakland City,S,33.7213,-84.42769,
LARCENY-FROM VEHICLE,170592635,02/28/2017,3814 VERMONT RD NE,209,Brookhaven,B,33.85926,-84.35617,
LARCENY-FROM VEHICLE,170592640,02/28/2017,2277 PEACHTREE RD NE,211,,E,33.81595,-84.39051,
BURGLARY-RESIDENCE,170592701,02/28/2017,2850 GLENWOOD AVE SE,611,East Lake,O,33.73943,-84.2941,
AUTO THEFT,170592707,02/28/2017,428 ASHBURTON AVE SE,611,East Lake,O,33.74092,-84.29329,
LARCENY-FROM VEHICLE,170592777,02/28/2017,2160 CAMP GROUND RD SW,412,Kings Forest,P,33.69488,-84.51306,
AUTO THEFT,170592923,02/28/2017,1375 PEACHTREE ST NE,502,Midtown,E,33.79251,-84.38638,
LARCENY-FROM VEHICLE,170592989,02/28/2017,3333 PIEDMONT RD NE,208,North Buckhead,B,33.84592,-84.37234,
ROBBERY-COMMERCIAL,170592995,02/28/2017,1156 MEMORIAL DR SE,606,Reynoldstown,N,33.74781,-84.34977,
LARCENY-FROM VEHICLE,170592997,02/28/2017,14 WIEUCA TRCE NE,209,North Buckhead,B,33.86823,-84.36927,
LARCENY-FROM VEHICLE,170593016,02/28/2017,1133 HUFF RD,203,Blandtown,D,33.78978,-84.42557,
AGG ASSAULT,170593064,02/28/2017,425 CHAPEL ST SW,507,Castleberry Hill,M,33.75285,-84.40152,
LARCENY-NON VEHICLE,170593149,02/28/2017,2151 LENOX RD NE,213,Lindridge/Martin Manor,F,33.81356,-84.35129,
AGG ASSAULT,170593210,02/28/2017,499 NORTHSIDE CIR NW,207,Loring Heights,E,33.79742,-84.40671,
AUTO THEFT,170593240,02/28/2017,1749 EMERALD AVE SW,404,Westview,T,33.74232,-84.44505,
LARCENY-FROM VEHICLE,170593272,02/28/2017,2591 PIEDMONT RD NE,211,Lindbergh/Morosgo,B,33.82494,-84.36684,
AGG ASSAULT,170571182,02/27/2017,179 ARCADIA CIR NW,105,Hunter Hills,K,33.75969,-84.42634,
AUTO THEFT,170580003,02/27/2017,1936 PIEDMONT CIR NE,212,Piedmont Heights,F,33.80965,-84.36831,
LARCENY-FROM VEHICLE,170580065,02/27/2017,936 MYRTLE ST NE,503,Midtown,E,33.7802,-84.37988,
AGG ASSAULT,170580286,02/27/2017,984 CONLEY RD SE,313,South River Gardens,Z,33.65002,-84.35705,
AUTO THEFT,170580322,02/27/2017,736 ALINE DR NW,112,Collier Heights,I,33.77548,-84.4894,
ROBBERY-COMMERCIAL,170580703,02/27/2017,180 PONCE DE LEON AVE NE,505,Midtown,E,33.77285,-84.38149,
LARCENY-FROM VEHICLE,170580709,02/27/2017,1212 JAMES JACKSON PKWY NW,113,Monroe Heights,G,33.79333,-84.47416,
AUTO THEFT,170580726,02/27/2017,784 MAGNOLIA WAY NW,102,Vine City,L,33.75804,-84.41379,
LARCENY-NON VEHICLE,170580753,02/27/2017,595 PIEDMONT AVE NE @PUBLIX - PIEDMONT,603,Old Fourth Ward,M,33.77067,-84.38023,
LARCENY-FROM VEHICLE,170580781,02/27/2017,800 PEACHTREE ST,505,Midtown,E,33.77655,-84.38478,
LARCENY-FROM VEHICLE,170580787,02/27/2017,1331 MARIETTA BLVD NW,203,Blandtown,D,33.79149,-84.42945,
LARCENY-FROM VEHICLE,170580823,02/27/2017,214 JOHN WESLEY DOBBS AVE NE,510,Downtown,M,33.75741,-84.38075,
AGG ASSAULT,170580857,02/27/2017,I-285 NB EXPY NW / MARTIN L KING JR DR NW,406,,I,33.75352,-84.49536,
LARCENY-NON VEHICLE,170580930,02/27/2017,165 COURTLAND ST NE @SHERATON ATLANTA,510,Downtown,M,33.75895,-84.3834,
BURGLARY-NONRES,170580974,02/27/2017,1935 ALISON CT SW @FRANCISCAN CLUB APT,410,Fort Valley,R,33.70015,-84.45073,
LARCENY-FROM VEHICLE,170581047,02/27/2017,1259 LANIER BLVD NE,213,Morningside/Lenox Park,F,33.78919,-84.34955,
LARCENY-FROM VEHICLE,170581192,02/27/2017,767 TRABERT AVE NW,207,Berkeley Park,D,33.79539,-84.41347,
LARCENY-NON VEHICLE,170581253,02/27/2017,960 CONSTITUTION RD SE,308,Norwood Manor,Z,33.69307,-84.35805,
LARCENY-NON VEHICLE,170581259,02/27/2017,201 17TH ST NW,501,Atlantic Station,E,33.79128,-84.39452,
LARCENY-FROM VEHICLE,170581262,02/27/2017,33 11TH ST NE,503,Midtown,E,33.78316,-84.38673,
LARCENY-NON VEHICLE,170581274,02/27/2017,2563 MARTIN L KING JR DR NW,111,Harland Terrace,I,33.75367,-84.47167,
LARCENY-NON VEHICLE,170581293,02/27/2017,1449 RICHLAND RD SW,402,Oakland City,S,33.73107,-84.43519,
LARCENY-FROM VEHICLE,170581387,02/27/2017,31 BAKER ST NW,508,Downtown,M,33.76257,-84.38867,
LARCENY-FROM VEHICLE,170581402,02/27/2017,30 SPRING ST NW,507,Downtown,M,33.75585,-84.39367,
LARCENY-NON VEHICLE,170581573,02/27/2017,1504 NORTH AVE NW,107,Grove Park,J,33.76784,-84.43703,
LARCENY-NON VEHICLE,170581584,02/27/2017,1801 HOWELL MILL RD NW,204,Berkeley Park,D,33.80388,-84.41278,
LARCENY-NON VEHICLE,170581589,02/27/2017,50 UPPER ALABAMA ST SW,511,Downtown,M,33.75194,-84.38964,
AUTO THEFT,170581615,02/27/2017,2175 BICKNELL DR SW,310,Polar Rock,Z,33.69521,-84.39806,
BURGLARY-RESIDENCE,170581641,02/27/2017,404 GRIFFIN ST NW,103,English Avenue,L,33.7657,-84.4114,
LARCENY-NON VEHICLE,170581727,02/27/2017,3535 PEACHTREE RD NE @TARGET - PEACHTREE,210,Lenox,B,33.85182,-84.3595,
LARCENY-NON VEHICLE,170581740,02/27/2017,565 MAIN ST NE,211,Lindbergh/Morosgo,B,33.8224,-84.36851,
LARCENY-FROM VEHICLE,170581742,02/27/2017,1300 CASCADE FALLS DR SW,409,Cascade Heights,I,33.72025,-84.49254,
LARCENY-NON VEHICLE,170581749,02/27/2017,3500 PEACHTREE RD NE,208,North Buckhead,B,33.85248,-84.36058,
LARCENY-FROM VEHICLE,170581750,02/27/2017,170 CARNEGIE WAY NW,508,Downtown,M,33.75876,-84.38942,
BURGLARY-RESIDENCE,170581782,02/27/2017,2418 1ST ST NW,110,Scotts Crossing,G,33.80426,-84.46737,
AGG ASSAULT,170581785,02/27/2017,3334 PEACHTREE RD NE @ONE BUCKHEAD LOOP,208,North Buckhead,B,33.84911,-84.37075,
LARCENY-NON VEHICLE,170581794,02/27/2017,887 W MARIETTA ST NW,103,English Avenue,L,33.78117,-84.4148,
ROBBERY-PEDESTRIAN,170581818,02/27/2017,113 DOGWOOD DR NW,112,Collier Heights,I,33.78147,-84.4949,
LARCENY-NON VEHICLE,170581908,02/27/2017,375 18TH ST NW @TARGET - 18TH,501,Atlantic Station,E,33.79303,-84.39921,
AUTO THEFT,170581934,02/27/2017,1811 GODDARD ST SE,308,Thomasville Heights,Z,33.70299,-84.35547,
LARCENY-NON VEHICLE,170581971,02/27/2017,50 LOWER ALABAMA ST SW,511,Downtown,M,33.75223,-84.38978,
LARCENY-NON VEHICLE,170582027,02/27/2017,3872 ROSWELL RD NE,209,East Chastain Park,B,33.86019,-84.38066,
LARCENY-FROM VEHICLE,170582033,02/27/2017,600 PONCE DE LEON AVE NE,506,Midtown,E,33.77376,-84.36722,
BURGLARY-RESIDENCE,170582069,02/27/2017,364 ELVIRA ST SE,305,Chosewood Park,Y,33.71758,-84.37599,
LARCENY-NON VEHICLE,170582236,02/27/2017,1867 MYRTLE DR SW,410,Campbellton Road,R,33.70394,-84.4551,
LARCENY-FROM VEHICLE,170582248,02/27/2017,930 HOWELL MILL RD NW,501,Home Park,E,33.78008,-84.41055,
LARCENY-FROM VEHICLE,170582264,02/27/2017,710 PEACHTREE ST NE @HOWELL HOUSE,505,Midtown,E,33.77407,-84.38526,
AGG ASSAULT,170582322,02/27/2017,2348 SW CASCADE RD SW,409,Adams Park,R,33.72146,-84.46522,
LARCENY-FROM VEHICLE,170582374,02/27/2017,1845 PIEDMONT AVE NE ,212,Morningside/Lenox Park,F,33.80622,-84.36626,
LARCENY-FROM VEHICLE,170582441,02/27/2017,190  GEORGE ST SE,605,Grant Park,W,33.74811,-84.37585,
LARCENY-FROM VEHICLE,170582481,02/27/2017,655 SEMINOLE AVE NE ,602,Poncey-Highland,N,33.77243,-84.35075,
LARCENY-FROM VEHICLE,170582498,02/27/2017,3201 MARTIN L KING JR DR NW ,111,,I,33.75428,-84.49165,
LARCENY-FROM VEHICLE,170582533,02/27/2017,445 MARKHAM,508,Castleberry Hill,M,33.75294,-84.40176,
LARCENY-FROM VEHICLE,170582546,02/27/2017,1000 MARIETTA ST NW,504,Marietta Street Artery,E,33.77914,-84.41116,
LARCENY-FROM VEHICLE,170582720,02/27/2017,1801 HOWELL MILL RD,204,Berkeley Park,D,33.80388,-84.41278,
LARCENY-FROM VEHICLE,170582723,02/27/2017,2115 PIEDMONT RD NE,212,Morningside/Lenox Park,F,33.81274,-84.36659,
LARCENY-FROM VEHICLE,170582738,02/27/2017,1529 PIEDMONT AVE NE,213,Morningside/Lenox Park,F,33.79625,-84.36946,
AUTO THEFT,170582762,02/27/2017,1085 HOWELL MILL RD NW,501,Home Park,E,33.78455,-84.41142,
LARCENY-NON VEHICLE,170582811,02/27/2017,1893 PENELOPE RD NW,108,Penelope Neighbors,J,33.7541,-84.44927,
LARCENY-FROM VEHICLE,170582826,02/27/2017,794 PONCE DE LEON AVE NE,601,Virginia Highland,F,33.77415,-84.36129,
AUTO THEFT,170582831,02/27/2017,415 ARMOUR DR NE,212,,F,33.81267,-84.37412,
LARCENY-FROM VEHICLE,170582863,02/27/2017,36 JOHN PORTMAN BLVD NE,509,Downtown,M,33.76074,-84.38561,
LARCENY-FROM VEHICLE,170582888,02/27/2017,135 ANDREW YOUNG INTERNA BLVD NW,508,Downtown,M,33.76002,-84.39178,
AUTO THEFT,170582891,02/27/2017,1117 METROPOLITAN PKWY SW,301,Adair Park,V,33.7244,-84.40814,
AUTO THEFT,170582895,02/27/2017,2053 TIGER FLOWERS DR NW,108,Dixie Hills,J,33.76038,-84.45451,
LARCENY-NON VEHICLE,170582980,02/27/2017,1677 DONALD LEE HOLLOWELL PKWY NW,110,Grove Park,J,33.77327,-84.44224,
LARCENY-NON VEHICLE,170392603,02/27/2017,3393 PEACHTREE RD NE @LENOX MALL,210,Lenox,B,33.84676,-84.36212,
LARCENY-NON VEHICLE,170571212,02/26/2017,950 WEST PEACHTREE ST NW,503,Midtown,E,33.78014,-84.38747,
BURGLARY-RESIDENCE,170571365,02/26/2017,1488 WESSYNGTON RD NE,213,Morningside/Lenox Park,F,33.79519,-84.35691,
LARCENY-FROM VEHICLE,170571366,02/26/2017,2479 ABNER TER NW,110,Carver Hills,G,33.80063,-84.46635,
AGG ASSAULT,170571418,02/26/2017,3041 LANDRUM DR SW,409,Southwest,R,33.70649,-84.48782,
AGG ASSAULT,170571452,02/26/2017,320 LUCKIE ST NW,508,Downtown,M,33.7632,-84.39637,
LARCENY-NON VEHICLE,170571463,02/26/2017,3393 PEACHTREE RD NE @Multiple,210,Lenox,B,33.84676,-84.36212,
LARCENY-FROM VEHICLE,170571520,02/26/2017,CENTRAL AVE SE / WALL ST SE,511,Downtown,M,33.75253,-84.38836,
LARCENY-FROM VEHICLE,170571558,02/26/2017,2975 HEADLAND DR SW,411,Greenbriar,R,33.69168,-84.4872,
LARCENY-NON VEHICLE,170571698,02/26/2017,590 CASCADE AVE SW @KROGER - CASCADE,402,West End,T,33.73812,-84.43276,
LARCENY-NON VEHICLE,170571716,02/26/2017,800 GLENWOOD AVE SE,605,Grant Park,W,33.74234,-84.36002,
AGG ASSAULT,170571757,02/26/2017,MAYNARD TER SE / GLENWOOD AVE SE,612,East Atlanta,W,33.74001,-84.33504,
LARCENY-NON VEHICLE,170571830,02/26/2017,590 CASCADE AVE SW @KROGER - CASCADE,402,West End,T,33.73812,-84.43276,
LARCENY-FROM VEHICLE,170571879,02/26/2017,1617 JACKSON TRACE CT NW,113,Lincoln Homes,G,33.79948,-84.47601,
LARCENY-NON VEHICLE,170571933,02/26/2017,3650 JONESBORO RD,311,South River Gardens,Z,33.6558,-84.36612,
LARCENY-NON VEHICLE,170571991,02/26/2017,1945 KIMBERLY RD SW,412,Ben Hill Terrace,P,33.70103,-84.52308,
LARCENY-NON VEHICLE,170571993,02/26/2017,3755 CARMIA DR SW,414,Princeton Lakes,P,33.6569,-84.51004,
LARCENY-FROM VEHICLE,170572083,02/26/2017,2915 COLLIER DR NW,112,Collier Heights,I,33.76459,-84.48236,
AUTO THEFT,170572160,02/26/2017,1168 WEST AVE SW,302,Pittsburgh,V,33.72314,-84.3961,
LARCENY-NON VEHICLE,170572227,02/26/2017,288 MILLEDGE AVE SE,605,Grant Park,W,33.73914,-84.37824,
LARCENY-FROM VEHICLE,170572375,02/26/2017,275 BAKER ST NW,508,Downtown,M,33.76206,-84.39568,
LARCENY-FROM VEHICLE,170572383,02/26/2017,269 BUCKHEAD AVE NE @BUCKHEAD BRANCH,206,Buckhead Village,B,33.83764,-84.37936,
AUTO THEFT,170572508,02/26/2017,113 GASLIGHT LN NW,108,Dixie Hills,J,33.75703,-84.46597,
AGG ASSAULT,170572514,02/26/2017,1860 MONROE DR NE,213,Piedmont Heights,F,33.8053,-84.37486,
AGG ASSAULT,170572528,02/26/2017,1817 HONEYSUCKLE LANE SW APT#114,410,Campbellton Road,R,33.70607,-84.45319,
RAPE,170572537,02/26/2017,3378 GREENBRIAR PKWY SW,413,,P,33.68387,-84.50204,
AUTO THEFT,170572599,02/26/2017,3760 PRINCETON LAKES PKWY SW,414,Princeton Lakes,P,33.65806,-84.51051,
LARCENY-FROM VEHICLE,170572600,02/26/2017,80 JESSE HILL JR DR SE,510,Downtown,M,33.75168,-84.38198,
LARCENY-FROM VEHICLE,170572653,02/26/2017,415 ARMOUR DR NE,212,,F,33.81267,-84.37412,
LARCENY-FROM VEHICLE,170572654,02/26/2017,2055 ALISON CT SW,410,Campbellton Road,R,33.7008,-84.45579,
AGG ASSAULT,170572679,02/26/2017,2136 LENOX RD NE,213,Lindridge/Martin Manor,F,33.81307,-84.35152,
ROBBERY-PEDESTRIAN,170570089,02/26/2017,590 CASCADE AVE SW @KROGER - CASCADE,402,West End,T,33.73812,-84.43276,
LARCENY-NON VEHICLE,170570263,02/26/2017,736 PONCE DE LEON PL NE,601,Virginia Highland,F,33.77477,-84.36379,
AGG ASSAULT,170570285,02/26/2017,1791 S GORDON ST SW,404,Westwood Terrace,I,33.73862,-84.44696,
LARCENY-FROM VEHICLE,170570503,02/26/2017,2125 SOUTHWOOD CV SW,412,Ben Hill Terrace,P,33.69518,-84.51856,
BURGLARY-RESIDENCE,170570706,02/26/2017,800 W MARIETTA ST NW,103,English Avenue,L,33.78022,-84.41514,
ROBBERY-PEDESTRIAN,170570765,02/26/2017,1034 WASHINGTON ST SW,304,Peoplestown,V,33.72677,-84.39088,
LARCENY-FROM VEHICLE,170570861,02/26/2017,2222 SWALLOW CIR SE,310,Swallow Circle/Baywood,Z,33.69361,-84.38627,
AUTO THEFT,170570863,02/26/2017,923 REDFORD DR SE,308,Rebel Valley Forest,Z,33.68862,-84.35934,
BURGLARY-NONRES,170570874,02/26/2017,3300 PEACHTREE RD NE,208,North Buckhead,B,33.84496,-84.36936,
BURGLARY-RESIDENCE,170570933,02/26/2017,2850 GLENWOOD AVE SE,611,East Lake,O,33.73943,-84.2941,
LARCENY-NON VEHICLE,170570993,02/26/2017,1634 LAKEWOOD AVE SE,307,Lakewood Heights,Y,33.70965,-84.37962,
AGG ASSAULT,170571048,02/26/2017,1960 MOREHOUSE DR NW,108,Dixie Hills,J,33.76154,-84.45193,
LARCENY-NON VEHICLE,170571061,02/26/2017,3232 PEACHTREE RD NW ,208,Cross Creek,C,33.81336,-84.42454,
AUTO THEFT,170571110,02/26/2017,140 MOUNT ZION RD SE,312,Glenrose Heights,Z,33.67287,-84.38483,
BURGLARY-RESIDENCE,170571139,02/26/2017,2322 ABNER PL NW,110,Carver Hills,G,33.80186,-84.46369,
LARCENY-NON VEHICLE,170571177,02/26/2017,180 RALPH D ABERNATHY BLVD SW,303,Mechanicsville,V,33.73656,-84.39376,
LARCENY-NON VEHICLE,170560025,02/25/2017,850 JAMES JACKSON PKWY NW,113,Brookview Heights,G,33.77815,-84.47516,
LARCENY-FROM VEHICLE,170560351,02/25/2017,77 W. PACES FERRY RD,206,South Tuxedo Park,B,33.84064,-84.38193,
AGG ASSAULT,170560483,02/25/2017,3540 N CAMP CREEK PKWY SW,414,,P,33.67051,-84.50299,
AUTO THEFT,170560812,02/25/2017,186 NORTHSIDE DR SW ,507,Castleberry Hill,M,33.74952,-84.40352,
LARCENY-FROM VEHICLE,170560827,02/25/2017,242 PEACHTREE CENTER AVE NE,509,Downtown,M,33.76115,-84.38614,
BURGLARY-NONRES,170560846,02/25/2017,2350 DANIEL RD SW,413,,P,33.69017,-84.51622,
LARCENY-FROM VEHICLE,170560852,02/25/2017,135 ANDREW YOUNG INTERNA BLVD NW ,508,Downtown,M,33.75973,-84.39207,
BURGLARY-NONRES,170560889,02/25/2017,2636 MARTIN L KING JR DR SW,405,Harland Terrace,I,33.75277,-84.47429,
LARCENY-NON VEHICLE,170560901,02/25/2017,1161 NORTHMOOR CT NW,201,Westminster/Milmar,C,33.83471,-84.42509,
AUTO THEFT,170560904,02/25/2017,49 BOULEVARD SE,604,Sweet Auburn,M,33.75275,-84.37186,
AUTO THEFT,170560911,02/25/2017,580 FRASER ST SE,304,Summerhill,V,33.73843,-84.38605,
LARCENY-FROM VEHICLE,170560962,02/25/2017,262 PULLIAM ST SW,512,Downtown,M,33.74737,-84.39235,
LARCENY-FROM VEHICLE,170560971,02/25/2017,3451 ATLANTA INDUSTRIAL PKWY NW,114,Atlanta Industrial Park,G,33.795,-84.49432,
LARCENY-NON VEHICLE,170561079,02/25/2017,400 EDGEWOOD AVE NE,604,Sweet Auburn,M,33.75464,-84.37465,
LARCENY-FROM VEHICLE,170561129,02/25/2017,60 BELL ST NE,510,Downtown,M,33.75724,-84.37952,
LARCENY-NON VEHICLE,170561132,02/25/2017,979 HOWELL PL SW,401,West End,T,33.73939,-84.41986,
LARCENY-NON VEHICLE,170561139,02/25/2017,2815 LANDRUM DR SW,409,Laurens Valley,R,33.70652,-84.48075,
LARCENY-NON VEHICLE,170561145,02/25/2017,13 PLANTATION DR NE,210,Pine Hills,B,33.83623,-84.35688,
LARCENY-FROM VEHICLE,170561242,02/25/2017,1447 BENTEEN AVE SE,607,Benteen Park,W,33.7147,-84.36694,
LARCENY-FROM VEHICLE,170561246,02/25/2017,674 SPRING ST NW,505,Midtown,E,33.77308,-84.38924,
AUTO THEFT,170561310,02/25/2017,1734 DERRY AVE SW,404,Westview,T,33.74329,-84.4445,
BURGLARY-RESIDENCE,170561324,02/25/2017,1746 MARCEL AVE SW,408,,R,33.70823,-84.44513,
AUTO THEFT,170561325,02/25/2017,3550 CAMPBELLTON RD SW;,413,,P,33.68984,-84.50491,
LARCENY-FROM VEHICLE,170561329,02/25/2017,31 BAKER ST NW,508,Downtown,M,33.76257,-84.38867,
LARCENY-NON VEHICLE,170561331,02/25/2017,1554 PIEDMONT NE,213,Piedmont Heights,F,33.79668,-84.36951,
AGG ASSAULT,170561349,02/25/2017,2069 PERKERSON RD SW,306,Sylvan Hills,X,33.698,-84.41621,
LARCENY-FROM VEHICLE,170561352,02/25/2017,186 HURT ST NE,602,Inman Park,N,33.75902,-84.35489,
AUTO THEFT,170561386,02/25/2017,602 REED ST SE,304,Summerhill,V,33.73827,-84.38538,
LARCENY-FROM VEHICLE,170561416,02/25/2017,1328 PEACHTREE ST NE,502,Midtown,E,33.79087,-84.38612,
AUTO THEFT,170561446,02/25/2017,294 SAMPSON ST NE,603,Old Fourth Ward,M,33.76259,-84.36562,
LARCENY-FROM VEHICLE,170561608,02/25/2017,1578 PIEDMONT AVE NE,213,Piedmont Heights,F,33.79764,-84.36884,
BURGLARY-RESIDENCE,170561610,02/25/2017,1991 DELOWE DR SW,410,Campbellton Road,R,33.70103,-84.45746,
LARCENY-NON VEHICLE,170561619,02/25/2017,1275 CAROLINE ST NE @TARGET - CAROLINE,609,Edgewood,O,33.75674,-84.34619,
LARCENY-NON VEHICLE,170561640,02/25/2017,44 PEACHTREE PL NE,503,Midtown,E,33.78085,-84.38537,
LARCENY-NON VEHICLE,170561687,02/25/2017,1001 PONCE DE LEON AVE NE @PUBLIX - PONCE,602,Poncey-Highland,N,33.7734,-84.35467,
BURGLARY-RESIDENCE,170561735,02/25/2017,620 PROVIDENCE PL SW,407,Mays,H,33.74326,-84.50523,
LARCENY-FROM VEHICLE,170561750,02/25/2017,415 ARMOUR DR NE,212,,F,33.81267,-84.37412,
LARCENY-NON VEHICLE,170561781,02/25/2017,2784 DONALD LEE HOLLOWELL PKWY NW,112,Collier Heights,I,33.77927,-84.47996,
LARCENY-FROM VEHICLE,170561783,02/25/2017,2975 HEADLAND DR SW @BIG LOTS - HEADLAND,411,Greenbriar,R,33.69168,-84.4872,
LARCENY-NON VEHICLE,170561956,02/25/2017,565 JOSEPH E LOWERY BLVD SW,401,West End,T,33.73969,-84.41828,
BURGLARY-RESIDENCE,170562047,02/25/2017,837 SKIPPER DR NW,112,Collier Heights,I,33.77812,-84.48978,
LARCENY-NON VEHICLE,170562054,02/25/2017,3650 JONESBORO RD SE,313,South River Gardens,Z,33.6558,-84.36612,
LARCENY-NON VEHICLE,170562105,02/25/2017,48 GEORGIA AVE SE ,304,Summerhill,V,33.73692,-84.38621,
LARCENY-NON VEHICLE,170562116,02/25/2017,2841 GREENBRIAR PKWY SW @GREENBRIAR MALL,411,Greenbriar,R,33.68677,-84.49773,
LARCENY-FROM VEHICLE,170562127,02/25/2017,1119 MANSFIELD AVE NE,602,Inman Park,N,33.76777,-84.35023,
LARCENY-NON VEHICLE,170562139,02/25/2017,1001 PONCE DE LEON AVE NE @PUBLIX - PONCE,602,Poncey-Highland,N,33.7734,-84.35467,
LARCENY-NON VEHICLE,170562170,02/25/2017,721 AMI ST SE @CHANEY STADIUM,304,Summerhill,V,33.73602,-84.38251,
LARCENY-NON VEHICLE,170562218,02/25/2017,265 PEACHTREE CENTER AVE NE ,509,Downtown,M,33.76158,-84.38496,
LARCENY-NON VEHICLE,170562360,02/25/2017,119 PHARR RD NW,206,Peachtree Heights West,B,33.8368,-84.38533,
AUTO THEFT,170562498,02/25/2017,2135 LIDDELL DR NE,212,Morningside/Lenox Park,F,33.81194,-84.36298,
LARCENY-FROM VEHICLE,170562574,02/25/2017,3580 CAMPBELLTON RD SW,413,,P,33.6899,-84.50584,
AUTO THEFT,170562640,02/25/2017,2920 BROWNS MILL RD SE,312,Orchard Knob,Z,33.67486,-84.38362,
AUTO THEFT,170562688,02/25/2017,3200 STONE RD SW,411,Greenbriar,R,33.6697,-84.49403,
BURGLARY-RESIDENCE,170562777,02/25/2017,3440 BOULDER PARK DR SW,407,Mays,H,33.75004,-84.50063,
LARCENY-FROM VEHICLE,170562861,02/25/2017,432 BECKWITH CT SW,101,Atlanta University Center,T,33.75323,-84.40436,
AUTO THEFT,170562874,02/25/2017,755 HANK AARON DR SW @TURNER FIELD,304,Summerhill,V,33.73624,-84.389,
AUTO THEFT,170562887,02/25/2017,50 MOUNT ZION RD SW,312,Glenrose Heights,Z,33.67273,-84.39067,
ROBBERY-PEDESTRIAN,170562920,02/25/2017,98 WILLIAM H. BORDERS SR. DR. SE,604,Sweet Auburn,M,33.75118,-84.37486,
BURGLARY-RESIDENCE,170563004,02/25/2017,3234 ANDREWS CT NW,206,Peachtree Heights West,B,33.84364,-84.38918,
BURGLARY-RESIDENCE,170563031,02/25/2017,3909 CAMPBELLTON RD SW,412,Kings Forest,P,33.6924,-84.51637,
LARCENY-FROM VEHICLE,170568002,02/25/2017,GATE D10 @11700 SPINE RD,703,,,33.63913,-84.4299,
ROBBERY-RESIDENCE,162680163,02/25/2017,1000 COLLIER RD NW,204,Underwood Hills,D,33.8095,-84.42029,
LARCENY-FROM VEHICLE,170550042,02/24/2017,1170 VIRGINIA AVE NE,601,Virginia Highland,F,33.78076,-84.34902,
LARCENY-FROM VEHICLE,170550116,02/24/2017,690 11TH ST NW,501,Home Park,E,33.78283,-84.4106,
RAPE,170550132,02/24/2017,31 MORELAND AVE NE,609,Edgewood,O,33.75433,-84.34896,
LARCENY-FROM VEHICLE,170550140,02/24/2017,2043 CHESHIRE BRIDGE RD NE,213,Lindridge/Martin Manor,F,33.81123,-84.35601,
LARCENY-FROM VEHICLE,170550223,02/24/2017,600 GREENSFERRY AVE SW,101,The Villages at Castleberry H,T,33.74662,-84.40755,
BURGLARY-NONRES,170550367,02/24/2017,2975 HEADLAND DR SW,411,Greenbriar,R,33.68965,-84.48681,
AUTO THEFT,170550859,02/24/2017,58 SHERIDAN DR NE,206,Garden Hills,B,33.83244,-84.38241,
BURGLARY-RESIDENCE,170550924,02/24/2017,1064 ORLANDO PL SW,403,Cascade Avenue/Road,S,33.72617,-84.43962,
LARCENY-NON VEHICLE,170551218,02/24/2017,835 MARTIN L KING JR DR NW,102,Vine City,L,33.75504,-84.41457,
AGG ASSAULT,170551230,02/24/2017,69 MAYSON AVE NE,609,Edgewood,O,33.75546,-84.33644,
LARCENY-NON VEHICLE,170551354,02/24/2017,1241 MORELAND AVE SE @SUNSHINE PLAZA SC,607,Woodland Hills,W,33.72055,-84.35045,
LARCENY-NON VEHICLE,170551382,02/24/2017,1217 CAROLINE ST NE,609,Edgewood,O,33.75786,-84.34875,
BURGLARY-RESIDENCE,170551396,02/24/2017,1047 HILBURN DR SE,612,East Atlanta,W,33.72633,-84.32614,
LARCENY-FROM VEHICLE,170551498,02/24/2017,585 MCWILLIAMS RD SE,310,Browns Mill Park,Z,33.6887,-84.36924,
LARCENY-NON VEHICLE,170551517,02/24/2017,3391 PEACHTREE RD NE,210,Lenox,B,33.84886,-84.36517,
LARCENY-NON VEHICLE,170551544,02/24/2017,835 MARTIN L KING JR DR NW,102,Vine City,L,33.75504,-84.41457,
LARCENY-NON VEHICLE,170551682,02/24/2017,100 CENTENNIAL OLYMPIC P DR NW @PHILLIPS ARENA,507,Downtown,M,33.75733,-84.39635,
LARCENY-FROM VEHICLE,170551683,02/24/2017,165 COURTLAND ST NE @SHERATON ATLANTA,510,Downtown,M,33.75895,-84.3834,
LARCENY-FROM VEHICLE,170551737,02/24/2017,404 FORREST RIDGE DR NW,112,Collier Heights,I,33.76632,-84.47881,
BURGLARY-RESIDENCE,170551773,02/24/2017,184 LAUREL AVE SW,104,Mozley Park,K,33.75026,-84.43998,
AGG ASSAULT,170551850,02/24/2017,2140 PEACHTREE RD NW ,207,,C,33.81301,-84.3938,
LARCENY-FROM VEHICLE,170551873,02/24/2017,1998 LENOX RD NE,213,Morningside/Lenox Park,F,33.80898,-84.35138,
LARCENY-FROM VEHICLE,170551892,02/24/2017,2626 OAKLAND DR,605,Grant Park,W,33.74745,-84.37516,
LARCENY-FROM VEHICLE,170551897,02/24/2017,1012 PIEDMONT AVE NE,503,Midtown,E,33.78227,-84.38058,
LARCENY-NON VEHICLE,170551917,02/24/2017,835 MARTINLUTHER KING JR DR,102,Vine City,L,33.75504,-84.41457,
LARCENY-FROM VEHICLE,170552023,02/24/2017,1700 ALVARADO TERRACE SW,404,Westview,T,33.73475,-84.44347,
LARCENY-NON VEHICLE,170552084,02/24/2017,595 PIEDMONT AVE NE @PUBLIX - PIEDMONT,603,Old Fourth Ward,M,33.77067,-84.38023,
LARCENY-FROM VEHICLE,170552275,02/24/2017,2089 MONROE DR NE,212,Piedmont Heights,F,33.80978,-84.37317,
LARCENY-NON VEHICLE,170552328,02/24/2017,561 PARK DR NE,601,Virginia Highland,F,33.78567,-84.36878,
LARCENY-NON VEHICLE,170552379,02/24/2017,1975 CAMPBELLTON RD SW,408,Venetian Hills,S,33.70827,-84.45385,
LARCENY-NON VEHICLE,170552385,02/24/2017,2890 N FULTON DR NW,206,Garden Hills,B,33.8319,-84.37603,
LARCENY-NON VEHICLE,170552484,02/24/2017,875 BERNE ST SE  ,607,Ormewood Park,W,33.7364,-84.35892,
AUTO THEFT,170552622,02/24/2017,100 6TH ST NE,505,Midtown,E,33.77756,-84.38417,
LARCENY-NON VEHICLE,170552714,02/24/2017,3393 PEACHTREE RD NE,210,Lenox,B,33.84676,-84.36212,
LARCENY-NON VEHICLE,170552858,02/24/2017,3460 MEADOWLANE PL SW,412,Meadowbrook Forest,P,33.69266,-84.50096,
BURGLARY-RESIDENCE,170552914,02/24/2017,740 SIDNEY MARCUS BLVD NE,211,Lindbergh/Morosgo,B,33.82598,-84.36335,
AUTO THEFT,170552994,02/24/2017,765 MCDANIEL ST SW,302,Pittsburgh,V,33.73396,-84.40177,
LARCENY-NON VEHICLE,170553106,02/24/2017,556 LINWOOD AVE NE,602,Poncey-Highland,N,33.76931,-84.35646,
LARCENY-FROM VEHICLE,170553163,02/24/2017,1144 CRESCENT AVE NE,503,Midtown,E,33.78601,-84.38445,
LARCENY-FROM VEHICLE,170553298,02/24/2017,314 LUCKIE ST NW,508,Downtown,M,33.76296,-84.39669,
LARCENY-FROM VEHICLE,170553315,02/24/2017,320 FERGUSON ST NE,608,Candler Park,N,33.76301,-84.34352,
AGG ASSAULT,170553357,02/24/2017,1099 EUCLID AVE NE,602,Inman Park,N,33.76376,-84.35075,
AGG ASSAULT,170553365,02/24/2017,988 CONFEDERATE AVE SE,607,Ormewood Park,W,33.72781,-84.36339,
AGG ASSAULT,170553441,02/24/2017,116 HOWARD ST SE ,610,Kirkwood,O,33.74938,-84.32326,
AUTO THEFT,170553475,02/24/2017,1176 CHATTAHOOCHEE AVE NW,203,Blandtown,D,33.80058,-84.42561,
ROBBERY-PEDESTRIAN,170540069,02/23/2017,2553 SPRINGDALE RD SW,309,Perkerson,X,33.68497,-84.41563,
BURGLARY-RESIDENCE,170540263,02/23/2017,1051 VILLA CT SE,607,Boulevard Heights,W,33.72542,-84.3591,
ROBBERY-PEDESTRIAN,170540427,02/23/2017,500 NORTHSIDE DR SW,303,Pittsburgh,V,33.74165,-84.40776,
LARCENY-FROM VEHICLE,170540456,02/23/2017,1058 HOWELL MILL RD NW,501,Home Park,E,33.78345,-84.4119,
ROBBERY-PEDESTRIAN,170540486,02/23/2017,3177 PEACHTREE RD,206,Midtown,E,33.79158,-84.3916,
AGG ASSAULT,170540593,02/23/2017,2245 CAREY DR SE,310,Lakewood,Z,33.69283,-84.37021,
LARCENY-FROM VEHICLE,170540597,02/23/2017,49 BOULEVARD SE,604,Sweet Auburn,M,33.75253,-84.3721,
LARCENY-FROM VEHICLE,170540730,02/23/2017,890 MEMORIAL DR SE ,606,Reynoldstown,N,33.74702,-84.3584,
AGG ASSAULT,170540736,02/23/2017,3041 LANDRUM DR SW,409,Southwest,R,33.70649,-84.48782,
LARCENY-FROM VEHICLE,170540760,02/23/2017,373 LEGACY DR SW,104,Harris Chiles,T,33.74382,-84.41944,
LARCENY-FROM VEHICLE,170540789,02/23/2017,2301 DEFOOR HILLS RD NW,204,Underwood Hills,D,33.81784,-84.43442,
LARCENY-FROM VEHICLE,170540866,02/23/2017,2423 MARTIN L KING JR DR NW,108,Florida Heights,I,33.75183,-84.46623,
LARCENY-FROM VEHICLE,170540939,02/23/2017,753 EDGEWOOD AVE NE,602,Inman Park,N,33.75443,-84.36262,
AGG ASSAULT,170541017,02/23/2017,1683 LAKEWOOD AVE. SE,307,Lakewood Heights,Y,33.7083,-84.38035,
LARCENY-FROM VEHICLE,170541020,02/23/2017,300 W PEACHTREE ST NW @PEACHTREE TOWERS,508,Downtown,M,33.76254,-84.38789,
LARCENY-FROM VEHICLE,170541102,02/23/2017,3203 ARGONNE DR NW,205,Argonne Forest,C,33.84248,-84.40595,
BURGLARY-NONRES,170541105,02/23/2017,633 HANDLEY AVE SW,404,Westwood Terrace,I,33.73794,-84.45645,
LARCENY-NON VEHICLE,170541145,02/23/2017,3843 JONESBORO RD SE,313,South River Gardens,Z,33.64933,-84.36635,
AGG ASSAULT,170541233,02/23/2017,179 RUZELLE DR SE,312,Glenrose Heights,Z,33.66737,-84.38837,
LARCENY-NON VEHICLE,170541344,02/23/2017,2060 PEACHTREE RD NW,207,,E,33.81115,-84.39289,
BURGLARY-RESIDENCE,170541449,02/23/2017,1350 WESTMONT RD SW,403,Venetian Hills,S,33.71843,-84.4374,
LARCENY-NON VEHICLE,170541555,02/23/2017,3120 CAMPBELLTON RD SW,409,Southwest,R,33.69204,-84.49085,
LARCENY-NON VEHICLE,170541569,02/23/2017,50 UPPER ALABAMA ST SW,511,Downtown,M,33.75194,-84.38964,
LARCENY-NON VEHICLE,170541584,02/23/2017,1500 PERRY BLVD NW,110,Rockdale,G,33.78867,-84.43735,
LARCENY-NON VEHICLE,170541601,02/23/2017,1651 AIKEN ST SW,307,Joyland,Y,33.71008,-84.39648,
LARCENY-NON VEHICLE,170541695,02/23/2017,224 MILLS ST NW,504,Downtown,M,33.76524,-84.39469,
AGG ASSAULT,170541712,02/23/2017,646 ELBERT ST SW,301,Adair Park,V,33.72813,-84.40882,
LARCENY-NON VEHICLE,170541730,02/23/2017,529 PEACHTREE ST NE,509,Downtown,M,33.76896,-84.38487,
LARCENY-NON VEHICLE,170541750,02/23/2017,835 MARTIN L KING JR DR NW,102,Vine City,L,33.75504,-84.41457,
AUTO THEFT,170541754,02/23/2017,542 SAINT JOHNS AVE SW,306,Sylvan Hills,X,33.69899,-84.4064,
AUTO THEFT,170541755,02/23/2017,1717 CENTRA VILLA DR SW @CENTRA VILLA APTS,409,Adams Park,R,33.70926,-84.45652,
LARCENY-NON VEHICLE,170541795,02/23/2017,380 MARTIN ST SE @ML KING CHILD DEV C,605,Capitol Gateway,V,33.744,-84.3834,
LARCENY-NON VEHICLE,170541870,02/23/2017,3393 PEACHTREE RD NE @LENOX SQUARE,210,Lenox,B,33.84676,-84.36212,
LARCENY-FROM VEHICLE,170541934,02/23/2017,400 MERRITTS AVE NE @BEDFORD PINE PARK,603,Old Fourth Ward,M,33.76901,-84.37444,
LARCENY-FROM VEHICLE,170542085,02/23/2017,955 DESOTO ST NW,105,Washington Park,K,33.75755,-84.41919,
LARCENY-FROM VEHICLE,170542177,02/23/2017,3340 PEACHTREE RD NE ,208,North Buckhead,B,33.84743,-84.37089,
BURGLARY-RESIDENCE,170542186,02/23/2017,765 VEDADO WAY NE,506,Midtown,E,33.7753,-84.37219,
LARCENY-NON VEHICLE,170542357,02/23/2017,74 PEACHTREE ST SW,511,Downtown,M,33.75243,-84.39137,
LARCENY-FROM VEHICLE,170542518,02/23/2017,573 MAIN ST NE,211,Lindbergh/Morosgo,B,33.82226,-84.36831,
LARCENY-FROM VEHICLE,170542610,02/23/2017,415 ARMOUR DR,212,,F,33.81267,-84.37412,
BURGLARY-RESIDENCE,170542630,02/23/2017,979 HOWELL PL SW,401,West End,T,33.73917,-84.41978,
ROBBERY-PEDESTRIAN,170542651,02/23/2017,MARTIN L KING JR DR NW / FAIRBURN RD SW,111,Adamsville,H,33.75961,-84.50546,
ROBBERY-PEDESTRIAN,170542667,02/23/2017,45 WHITEHOUSE DR NW,106,Ashview Heights,T,33.75382,-84.42109,
LARCENY-NON VEHICLE,170542697,02/23/2017,3393 PEACHTREE RD NE @LENOX SQUARE,210,Lenox,B,33.84676,-84.36212,
LARCENY-FROM VEHICLE,170542718,02/23/2017,1759 DELAWARE AVE NE,608,Lake Claire,N,33.76376,-84.32994,
AGG ASSAULT,170542730,02/23/2017,1141 MOBILE ST NW,105,Hunter Hills,K,33.76294,-84.42478,
LARCENY-FROM VEHICLE,170542741,02/23/2017,465 BOULEVARD SE,605,Grant Park,W,33.74183,-84.3685,
AGG ASSAULT,170542852,02/23/2017,1689 W LAKE CT NW,105,West Lake,J,33.75936,-84.44317,
LARCENY-FROM VEHICLE,170542890,02/23/2017,2143 PEACHTREE RD NE,207,,E,33.81262,-84.39195,
LARCENY-NON VEHICLE,170542925,02/23/2017,1975 CAMPBELLTON ROAD SW,408,Venetian Hills,R,33.70803,-84.45339,
RAPE,170542984,02/23/2017,1050 REGENT ST SW,306,Sylvan Hills,X,33.70047,-84.423,
LARCENY-FROM VEHICLE,170543034,02/23/2017,304 OAKLAND AVE SE,605,Grant Park,W,33.74638,-84.37466,
AUTO THEFT,170543038,02/23/2017,2929 LANDRUM DR SW,409,Southwest,R,33.70623,-84.48388,
LARCENY-FROM VEHICLE,170543169,02/23/2017,1111 EUCLID AVE NE,602,Marietta Street Artery,E,33.77795,-84.40849,
LARCENY-FROM VEHICLE,170543237,02/23/2017,285 MARIETTA ST NW ,508,Downtown,M,33.76134,-84.39603,
LARCENY-FROM VEHICLE,170543241,02/23/2017,768 MARIETTA ST NW,504,Marietta Street Artery,E,33.77331,-84.40403,
LARCENY-FROM VEHICLE,170543315,02/23/2017,135 ANDREW YOUNG INTERNA BLVD NW,508,Downtown,M,33.76002,-84.39178,
LARCENY-NON VEHICLE,170548033,02/23/2017,10700 SPINE RD,703,,,33.64063,-84.43256,
AUTO THEFT,170532345,02/22/2017,1131 LEE ST SW,402,Oakland City,S,33.72408,-84.42153,
AUTO THEFT,170532377,02/22/2017,2033 PINE CONE DR SW,412,Heritage Valley,P,33.7003,-84.50043,
LARCENY-NON VEHICLE,170532388,02/22/2017,2905 CAMPBELLTON RD SW,409,Southwest,R,33.69827,-84.48395,
ROBBERY-PEDESTRIAN,170532488,02/22/2017,95 MARTIN L KING JR DR SW,511,Downtown,M,33.75161,-84.39112,
AUTO THEFT,170532498,02/22/2017,3280 PEACHTREE RD NE,208,North Buckhead,B,33.84443,-84.3711,
LARCENY-FROM VEHICLE,170532534,02/22/2017,530 PIEDMONT AVE NE,509,Downtown,M,33.76909,-84.38208,
ROBBERY-COMMERCIAL,170532569,02/22/2017,969 MARIETTA ST NW,504,Marietta Street Artery,E,33.77828,-84.4091,
LARCENY-FROM VEHICLE,170532603,02/22/2017,1380 ATLANTIC DR NW,501,Atlantic Station,E,33.79282,-84.39779,
AUTO THEFT,170532618,02/22/2017,741 MOROSGO DR NE,211,Lindbergh/Morosgo,B,33.82296,-84.36346,
LARCENY-NON VEHICLE,170532636,02/22/2017,314 MILLEDGE AVE SE,605,Grant Park,W,33.73917,-84.37737,
ROBBERY-PEDESTRIAN,170532773,02/22/2017,3200 STONE RD SW,411,Greenbriar,R,33.6697,-84.49403,
LARCENY-NON VEHICLE,170532867,02/22/2017,2685 METROPOLITAN PKWY SW,309,Perkerson,X,33.68274,-84.40902,
AUTO THEFT,170532892,02/22/2017,66 HOWARD ST NE,610,Kirkwood,O,33.75349,-84.32353,
LARCENY-FROM VEHICLE,170532936,02/22/2017,676 VIRGINIA AVE NE,601,Virginia Highland,F,33.78187,-84.36529,
ROBBERY-PEDESTRIAN,170532948,02/22/2017,2560 BROWNS MILL RD SE,312,Rosedale Heights,Z,33.68386,-84.38106,
LARCENY-FROM VEHICLE,170532964,02/22/2017,3630 PEACHTREE RD NE,209,North Buckhead,B,33.85471,-84.3586,
ROBBERY-RESIDENCE,170532968,02/22/2017,960 CONSTITUTION RD SE,308,Norwood Manor,Z,33.69307,-84.35805,
LARCENY-FROM VEHICLE,170533006,02/22/2017,112 KROG ST,602,Inman Park,N,33.75644,-84.36472,
AGG ASSAULT,170533118,02/22/2017,1012 ASHBY TER NW,105,Vine City,L,33.75955,-84.41686,
AGG ASSAULT,170530072,02/22/2017,3210 ROSWELL RD NW,206,South Tuxedo Park,B,33.84267,-84.3795,
AGG ASSAULT,170530165,02/22/2017,1865 CHESHIRE BRIDGE RD NE,213,Morningside/Lenox Park,F,33.80864,-84.36137,
BURGLARY-NONRES,170530214,02/22/2017,230 CLEVELAND AVE SW ,311,Glenrose Heights,Z,33.68012,-84.39573,
AUTO THEFT,170530374,02/22/2017,499 NORTHSIDE CIR NW,207,Loring Heights,E,33.79784,-84.40682,
LARCENY-NON VEHICLE,170530514,02/22/2017,595 PIEDMONT AVE NE  ,603,Old Fourth Ward,M,33.77067,-84.38023,
AUTO THEFT,170530728,02/22/2017,2301 SANDCOVE CT SW,412,,P,33.6999,-84.54322,
LARCENY-FROM VEHICLE,170530738,02/22/2017,396 PIEDMONT AVE NE,509,Downtown,M,33.76526,-84.38216,
AUTO THEFT,170530839,02/22/2017,1396 GAULT ST SE,305,Chosewood Park,Y,33.71618,-84.37203,
LARCENY-FROM VEHICLE,170530874,02/22/2017,1845 PIEDMONT AVE NE,213,Morningside/Lenox Park,F,33.80622,-84.36626,
LARCENY-FROM VEHICLE,170530915,02/22/2017,226 PEACHTREE ST NE @LENOX MALL,210,Lenox,B,33.84676,-84.36212,
RAPE,170530930,02/22/2017,990 NEW TOWN CIR SE,308,Thomasville Heights,Z,33.70825,-84.35915,
BURGLARY-RESIDENCE,170530935,02/22/2017,2255 RIDGEDALE RD NE,610,Kirkwood,O,33.75298,-84.31374,
LARCENY-FROM VEHICLE,170531014,02/22/2017,215 NORTH AVE NE,603,Old Fourth Ward,M,33.77117,-84.38025,
LARCENY-NON VEHICLE,170531164,02/22/2017,1616 PIEDMONT AVE NE,213,Piedmont Heights,F,33.79848,-84.36825,
LARCENY-NON VEHICLE,170531231,02/22/2017,1031 MAYSON TURNER RD NW,105,Washington Park,K,33.76171,-84.42014,
LARCENY-NON VEHICLE,170531249,02/22/2017,2841 GREENBRIAR PKWY SW,411,Greenbriar,R,33.68677,-84.49773,
LARCENY-FROM VEHICLE,170531278,02/22/2017,1000 PEACHTREE PARK DR NE,207,,E,33.81353,-84.38943,
BURGLARY-RESIDENCE,170531376,02/22/2017,2216 BEECHER RD SW,406,Beecher Hills,I,33.72943,-84.4606,
LARCENY-NON VEHICLE,170531402,02/22/2017,3393 PEACHTREE RD NE,210,Lenox,B,33.84676,-84.36212,
BURGLARY-NONRES,170531513,02/22/2017,2519 CHANTILLY DR NE,212,Lindridge/Martin Manor,F,33.82369,-84.35056,
LARCENY-NON VEHICLE,170531575,02/22/2017,3393 PEACHTREE RD NE ,210,Lenox,B,33.84676,-84.36212,
BURGLARY-RESIDENCE,170531581,02/22/2017,3475 BENJAMIN E MAYS DR SW,407,Mays,H,33.73919,-84.50286,
ROBBERY-PEDESTRIAN,170531599,02/22/2017,852 DILL AVE SW,301,Capitol View,X,33.7181,-84.41595,
AUTO THEFT,170531628,02/22/2017,3393 PEACHTREE RD NE @LENOX MALL,210,Lenox,B,33.84676,-84.36212,
AUTO THEFT,170531697,02/22/2017,945 PROCTOR ST NW,106,North Buckhead,B,33.84514,-84.37031,
LARCENY-NON VEHICLE,170531698,02/22/2017,1830 FLAT SHOALS RD SE,612,East Atlanta,W,33.72923,-84.32775,
LARCENY-NON VEHICLE,170531703,02/22/2017,2900 PEACHTREE RD NW @CALL BOX 1,206,Peachtree Heights West,B,33.83399,-84.3841,
LARCENY-FROM VEHICLE,170531788,02/22/2017,121 LINDEN AVE NE,509,Downtown,M,33.76952,-84.38322,
LARCENY-FROM VEHICLE,170531818,02/22/2017,2637 MARTIN L KING JR DR NW,111,Harland Terrace,I,33.75417,-84.47432,
LARCENY-NON VEHICLE,170531873,02/22/2017,1461 CENTRA VILLA DR SW,409,Adams Park,R,33.71548,-84.45366,
LARCENY-FROM VEHICLE,170531878,02/22/2017,202 ELM ST SW,101,Atlanta University Center,T,33.74942,-84.40924,
LARCENY-FROM VEHICLE,170531903,02/22/2017,46 WALL ST SE,511,Downtown,M,33.75312,-84.38876,
AUTO THEFT,170532000,02/22/2017,811 SPRINGDALE PL SW,309,Perkerson,X,33.69291,-84.41524,
LARCENY-FROM VEHICLE,170532056,02/22/2017,180 JACKSON ST NE @ATLANTA OVERLOOK AP,604,Sweet Auburn,M,33.75929,-84.37628,
LARCENY-FROM VEHICLE,170532060,02/22/2017,290 MARGARET ST,305,Lakewood Heights,Y,33.71257,-84.37897,
LARCENY-FROM VEHICLE,170532221,02/22/2017,2555 BOLTON RD NW,201,,C,33.82028,-84.45188,
LARCENY-NON VEHICLE,170532265,02/22/2017,633 SANDYS LN SE,313,South River Gardens,Z,33.67067,-84.3684,
LARCENY-NON VEHICLE,170532293,02/22/2017,2166 PEACHTREE RD NW @HOUSTONS,207,,C,33.81349,-84.39275,
LARCENY-NON VEHICLE,170532319,02/22/2017,1940 PIEDMONT RD NE,212,Piedmont Heights,F,33.81043,-84.36685,
BURGLARY-NONRES,170522436,02/21/2017,415 ARMOUR DR NE,212,,F,33.81267,-84.37412,
LARCENY-FROM VEHICLE,170522527,02/21/2017,128 E ANDREWS DR NW,206,South Tuxedo Park,B,33.84251,-84.38311,
ROBBERY-PEDESTRIAN,170522589,02/21/2017,2500 PINE TREE RD NE,210,Pine Hills,B,33.82522,-84.35849,
LARCENY-FROM VEHICLE,170522610,02/21/2017,341 PONCE DE LEON AVE NE,603,Old Fourth Ward,M,33.77222,-84.37559,
LARCENY-FROM VEHICLE,170522612,02/21/2017,207 PEACHTREE CENTER AVE NE,509,Downtown,M,33.7602,-84.38554,
LARCENY-NON VEHICLE,170522685,02/21/2017,3393 PEACHTREE RD NE,210,Lenox,B,33.84676,-84.36212,
LARCENY-FROM VEHICLE,170522750,02/21/2017,3657 MARTIN L KING JR DR NW,111,Adamsville,H,33.76208,-84.5076,
LARCENY-NON VEHICLE,170522780,02/21/2017,526 LAKESHORE DR NE,608,Lake Claire,N,33.7686,-84.32496,
BURGLARY-RESIDENCE,170522831,02/21/2017,1592 EZRA CHURCH DR NW,105,West Lake,J,33.75777,-84.43999,
LARCENY-FROM VEHICLE,170522857,02/21/2017,318 E PACES FERRY RD NE,206,Buckhead Village,B,33.83958,-84.37738,
LARCENY-FROM VEHICLE,170522882,02/21/2017,339 14TH ST NW,501,Home Park,E,33.78627,-84.39817,
BURGLARY-RESIDENCE,170522929,02/21/2017,3815 MARTIN L KING JR DR NW,114,Old Gordon,H,33.76918,-84.51471,
LARCENY-FROM VEHICLE,170522932,02/21/2017,3450 FORREST PARK RD SE,313,South River Gardens,Z,33.66061,-84.35549,
LARCENY-FROM VEHICLE,170522991,02/21/2017,500 CLEVELAND AVE SE,310,Browns Mill Park,Z,33.68149,-84.36933,
LARCENY-NON VEHICLE,170522997,02/21/2017,1341 METROPOLITAN PKWY SW,301,Capitol View,X,33.71805,-84.40809,
LARCENY-NON VEHICLE,170528045,02/21/2017,6000 S TERMINAL PKWY,704,,,33.63751,-84.44824,
LARCENY-FROM VEHICLE,170528047,02/21/2017,6023 SOUTH TERMINAL BYWAY,704,,,33.6397,-84.44398,
BURGLARY-RESIDENCE,170520167,02/21/2017,661 NORFLEET RD NW,205,Springlake,C,33.8126,-84.40998,
LARCENY-FROM VEHICLE,170520189,02/21/2017,1058 HOWELL MILL RD NW,501,Home Park,E,33.78345,-84.4119,
LARCENY-FROM VEHICLE,170520242,02/21/2017,3208 MARTIN L KING JR DR SW,406,,I,33.75188,-84.49244,
LARCENY-FROM VEHICLE,170520245,02/21/2017,3050 LYNHURST CIR SW,406,Ivan Hill,I,33.7466,-84.48734,
LARCENY-FROM VEHICLE,170520313,02/21/2017,1590 HUBER ST NW,203,Blandtown,D,33.79837,-84.42382,
BURGLARY-NONRES,170520368,02/21/2017,41 IRBY AVE NW,206,South Tuxedo Park,B,33.84152,-84.38026,
LARCENY-FROM VEHICLE,170520384,02/21/2017,2789 DEARWOOD DR SW,311,Hammond Park,X,33.67853,-84.40471,
AUTO THEFT,170520644,02/21/2017,2812 DEARWOOD DR SW,311,Hammond Park,X,33.67809,-84.40418,
ROBBERY-RESIDENCE,170520656,02/21/2017,859 MERCURY DR NW,114,Carroll Heights,H,33.77758,-84.50873,
AUTO THEFT,170520687,02/21/2017,3004 PIEDMONT RD NE,206,Garden Hills,B,33.83665,-84.36838,
LARCENY-FROM VEHICLE,170520793,02/21/2017,560 MARIETTA ST NW,507,Downtown,M,33.76841,-84.39842,
LARCENY-FROM VEHICLE,170520814,02/21/2017,2115 PIEDMONT RD NE @SQUIRE INN MOTEL NE,212,Cascade Avenue/Road,S,33.72274,-84.46264,
LARCENY-FROM VEHICLE,170520930,02/21/2017,1155 LAVISTA RD NE,212,Lindridge/Martin Manor,F,33.81743,-84.351,
LARCENY-FROM VEHICLE,170520943,02/21/2017,250 AMAL DRIVE SW,307,Betmar LaVilla,Y,33.70588,-84.39604,
LARCENY-FROM VEHICLE,170520951,02/21/2017,930 HOWELL MILL RD NW,501,Home Park,E,33.78008,-84.41055,
LARCENY-FROM VEHICLE,170520978,02/21/2017,265 PONCE DE LEON AVE NE,505,Midtown,E,33.77206,-84.37869,
LARCENY-FROM VEHICLE,170521085,02/21/2017,45 OLD IVY RD NE,209,North Buckhead,B,33.85414,-84.38126,
AUTO THEFT,170521091,02/21/2017,1386 DESOTO AVE SW,301,Capitol View,X,33.71702,-84.41163,
LARCENY-NON VEHICLE,170521115,02/21/2017,2796 WATERS RD SW,312,Glenrose Heights,Z,33.67863,-84.39061,
LARCENY-FROM VEHICLE,170521206,02/21/2017,401 FULTON ST SW,303,Mechanicsville,V,33.74234,-84.40076,
BURGLARY-RESIDENCE,170521215,02/21/2017,2265 PERRY BLVD NW,110,Scotts Crossing,G,33.80595,-84.46416,
LARCENY-NON VEHICLE,170521236,02/21/2017,130 W PACES FERRY RD NW,206,Peachtree Heights West,B,33.84192,-84.38627,
BURGLARY-RESIDENCE,170521328,02/21/2017,1391 MIMS ST SW,104,Mozley Park,K,33.74982,-84.43296,
AUTO THEFT,170521331,02/21/2017,1830 CAMPBELLTON RD SW,408,,R,33.70994,-84.44833,
BURGLARY-RESIDENCE,170521354,02/21/2017,3260 MOUNT GILEAD RD SW,409,Southwest,R,33.69798,-84.49477,
BURGLARY-NONRES,170521357,02/21/2017,3247 ROSWELL RD NE,208,Buckhead Forest,B,33.84376,-84.37894,
LARCENY-FROM VEHICLE,170521390,02/21/2017,680 PONCE DE LEON AVE,506,Midtown,E,33.77469,-84.36561,
LARCENY-NON VEHICLE,170521396,02/21/2017,2044 CAMPBELLTON RD,410,Campbellton Road,R,33.70658,-84.4568,
LARCENY-NON VEHICLE,170521430,02/21/2017,135 STAFFORD ST SW,104,Mozley Park,K,33.75127,-84.42817,
BURGLARY-RESIDENCE,170521438,02/21/2017,50 MOUNT ZION RD SW,312,Glenrose Heights,Z,33.67273,-84.39067,
LARCENY-NON VEHICLE,170521471,02/21/2017,1972 LOIS PL NW,110,Grove Park,J,33.78431,-84.45205,
BURGLARY-NONRES,170521558,02/21/2017,2519 CHANTILLY DR NE,212,Lindridge/Martin Manor,F,33.82369,-84.35056,
LARCENY-FROM VEHICLE,170521559,02/21/2017,1321 WESTRIDGE RD SW,408,Venetian Hills,S,33.71914,-84.44716,
AGG ASSAULT,170521604,02/21/2017,241 FORSYTH ST SW,512,Downtown,M,33.74809,-84.39722,
LARCENY-FROM VEHICLE,170521616,02/21/2017,1172 SPRING ST NW,503,Midtown,E,33.78653,-84.38935,
BURGLARY-RESIDENCE,170521619,02/21/2017,2265 PERRY BLVD NW,110,Scotts Crossing,G,33.80595,-84.46416,
RAPE,170521627,02/21/2017,324 ARCHER WAY NW,106,Bankhead,K,33.76373,-84.42363,
LARCENY-NON VEHICLE,170521634,02/21/2017,3500 PEACHTREE RD NE,208,North Buckhead,B,33.85248,-84.36058,
AUTO THEFT,170521692,02/21/2017,104 JOSEPH E LOWERY BLVD SW,101,Atlanta University Center,T,33.75188,-84.41742,
AUTO THEFT,170521699,02/21/2017,2685 METROPOLITAN PKWY SW,309,Perkerson,X,33.68274,-84.40902,
AUTO THEFT,170521709,02/21/2017,815 WILLIAMS ST NW,505,Midtown,E,33.77836,-84.39007,
BURGLARY-RESIDENCE,170521724,02/21/2017,884 MARGARET PL NW,110,Grove Park,J,33.77897,-84.44994,
AGG ASSAULT,170521759,02/21/2017,1001 PONCE DE LEON AVE NE @DOBYS,602,Poncey-Highland,N,33.77315,-84.35304,
AUTO THEFT,170521871,02/21/2017,441 WESTMEATH DR SW,404,Westview,T,33.74323,-84.44625,
AUTO THEFT,170521975,02/21/2017,2500 CENTER ST NW @ETHERIDGE COURT APT,113,Carey Park,G,33.79088,-84.4723,
LARCENY-NON VEHICLE,170522012,02/21/2017,2619 DONALD LEE HOLLOWELL PKWY NW,109,Center Hill,J,33.77579,-84.47254,
LARCENY-FROM VEHICLE,170522066,02/21/2017,437 MEMORIAL DR SE,605,Grant Park,W,33.74639,-84.37285,
LARCENY-NON VEHICLE,170522092,02/21/2017,1700 MONROE DR NE @KROGER - MONROE,213,Piedmont Heights,F,33.80052,-84.37307,
LARCENY-NON VEHICLE,170522272,02/21/2017,3535 PEACHTREE RD NE @PUBLIX - PEACHTREE,210,Lenox,B,33.85182,-84.3595,
LARCENY-FROM VEHICLE,170522286,02/21/2017,848 WILLIAMS ST NW,505,Midtown,E,33.77798,-84.39066,
BURGLARY-RESIDENCE,170522333,02/21/2017,794 MONROE DR NE,506,Midtown,E,33.77621,-84.37061,
AUTO THEFT,170522344,02/21/2017,1241 NORTHWEST DR NW,113,Monroe Heights,G,33.78945,-84.47774,
LARCENY-NON VEHICLE,170510003,02/20/2017,486 PONCE DE LEON AVE NE,506,Midtown,E,33.77379,-84.37122,
LARCENY-FROM VEHICLE,170510020,02/20/2017,3404 DELMAR LN NW @ADAMSVILLE PARK,111,Adamsville,H,33.7566,-84.49997,
LARCENY-FROM VEHICLE,170510047,02/20/2017,3412 MARTIN L KING JR DR SW,407,Adamsville,H,33.75489,-84.49963,
LARCENY-NON VEHICLE,170510086,02/20/2017,1541 NORTH AVE NW,107,Grove Park,J,33.7682,-84.4383,
BURGLARY-RESIDENCE,170510124,02/20/2017,415 ARMOUR DR NE,212,,F,33.81267,-84.37412,
BURGLARY-RESIDENCE,170510214,02/20/2017,1728 VENETIAN DR SW,408,Venetian Hills,S,33.71421,-84.44456,
BURGLARY-NONRES,170510357,02/20/2017,741 MONROE DR NE,506,Midtown,E,33.77472,-84.37068,
LARCENY-FROM VEHICLE,170510474,02/20/2017,411 FLAT SHOALS AVE SE,612,East Atlanta,W,33.74253,-84.34852,
BURGLARY-RESIDENCE,170510493,02/20/2017,1035 PARSONS ST SW,104,Ashview Heights,T,33.75127,-84.42184,
AUTO THEFT,170510520,02/20/2017,207 PEACHTREE CENTER AVE NE,509,Downtown,M,33.7602,-84.38554,
AGG ASSAULT,170510557,02/20/2017,1510 OLYMPIAN WAY SW,402,Westview,T,33.73526,-84.43693,
AUTO THEFT,170510580,02/20/2017,1783 JOHNSON RD NW,110,Rockdale,G,33.78547,-84.44593,
AGG ASSAULT,170510594,02/20/2017,1847 BRANDYWINE ST SW,306,Sylvan Hills,X,33.70443,-84.41736,
LARCENY-NON VEHICLE,170510612,02/20/2017,440 W PEACHTREE ST NW,504,Downtown,M,33.76614,-84.3876,
LARCENY-FROM VEHICLE,170510633,02/20/2017,2150 SOUTHWOOD CV SW,412,Ben Hill Terrace,P,33.69532,-84.51838,
ROBBERY-PEDESTRIAN,170510636,02/20/2017,1700 MONROE DR NE @KROGER - MONROE,213,Piedmont Heights,F,33.80052,-84.37307,
AUTO THEFT,170510651,02/20/2017,532 CLEVELAND AVE SW,311,Hammond Park,X,33.68116,-84.4059,
BURGLARY-NONRES,170510666,02/20/2017,730 BARNETT ST NE,601,Virginia Highland,F,33.77443,-84.35902,
AGG ASSAULT,170510680,02/20/2017,140 PINE ST NE,509,Downtown,M,33.7678,-84.38297,
LARCENY-FROM VEHICLE,170510707,02/20/2017,2253 BUTNER RD SW,413,Fairburn,P,33.69143,-84.52185,
AUTO THEFT,170510717,02/20/2017,370 NORTHSIDE DR NW,103,English Avenue,L,33.76507,-84.4042,
ROBBERY-PEDESTRIAN,170510809,02/20/2017,1848 HOLLYWOOD RD NW,113,Scotts Crossing,G,33.80577,-84.47309,
LARCENY-FROM VEHICLE,170510822,02/20/2017,28316 PLANTATION DR NE,210,Pine Hills,B,33.83528,-84.35677,
LARCENY-FROM VEHICLE,170510867,02/20/2017,2017 TUXEDO AVE NE,608,Lake Claire,N,33.76581,-84.32142,
AUTO THEFT,170510879,02/20/2017,604 LYNHURST DR SW @TRINITY AME CHURCH,406,,I,33.73907,-84.48941,
LARCENY-FROM VEHICLE,170510898,02/20/2017,4076 FAIRBURN AVE SW,413,Fairburn,P,33.6918,-84.5228,
BURGLARY-NONRES,170511045,02/20/2017,1820 MARIETTA BLVD NW,203,Hills Park,D,33.80478,-84.4372,
AUTO THEFT,170511051,02/20/2017,794 JUNIPER ST NE,505,Midtown,E,33.7762,-84.38319,
AUTO THEFT,170511090,02/20/2017,2417 MAIN ST NW,110,Scotts Crossing,G,33.80374,-84.46723,
AUTO THEFT,170511135,02/20/2017,3901 CAMPBELLTON RD SW,412,Kings Forest,P,33.69231,-84.51621,
LARCENY-FROM VEHICLE,170511188,02/20/2017,32 PACES WEST PL NW,202,Randall Mill,A,33.85259,-84.42781,
LARCENY-FROM VEHICLE,170511205,02/20/2017,87 PEACHTREE ST SW @KESSLERS DEPT STORE,511,Downtown,M,33.75243,-84.39198,
LARCENY-NON VEHICLE,170511215,02/20/2017,2147 BAKER RD NW,109,Center Hill,J,33.77056,-84.45806,
LARCENY-NON VEHICLE,170511317,02/20/2017,3565 MARTIN L KING JR DR NW @COLLIER HEIGHTS SC,111,Adamsville,H,33.7601,-84.50466,
BURGLARY-RESIDENCE,170511325,02/20/2017,1006 MARTIN ST SE,304,Peoplestown,V,33.72698,-84.38301,
LARCENY-FROM VEHICLE,170511382,02/20/2017,2166 PEACHTREE RD NW @HOUSTONS,207,,C,33.81349,-84.39275,
AUTO THEFT,170511388,02/20/2017,5 BOULEVARD SE,604,,E,33.81062,-84.39086,
LARCENY-NON VEHICLE,170511390,02/20/2017,2525 PIEDMONT RD NE @HOME DEPOT,211,Lindbergh/Morosgo,B,33.824,-84.36521,
LARCENY-NON VEHICLE,170511415,02/20/2017,1388 LA FRANCE ST NE,609,Edgewood,O,33.7608,-84.34229,
AUTO THEFT,170511434,02/20/2017,3385 DONALD LEE HOLLOWELL PKWY NW,114,Atlanta Industrial Park,G,33.79224,-84.49757,
AGG ASSAULT,170511499,02/20/2017,I-85 NB EXPY SW / CLEVELAND AVE SW,309,Perkerson,X,33.68131,-84.41149,
LARCENY-NON VEHICLE,170511515,02/20/2017,950 MARIETTA ST NW,504,Marietta Street Artery,E,33.77689,-84.40807,
LARCENY-FROM VEHICLE,170511531,02/20/2017,1001 PIEDMONT AVE NE,502,Midtown,E,33.78202,-84.38022,
LARCENY-FROM VEHICLE,170511600,02/20/2017,1943 PEACHTREE RD NE,207,Brookwood Hills,E,33.80799,-84.39355,
AUTO THEFT,170511658,02/20/2017,3071 MIDDLETON RD NW,111,,I,33.75276,-84.48994,
LARCENY-NON VEHICLE,170511668,02/20/2017,3400 LENOX DR NE @CORE POWER YOGA,210,Lenox,B,33.84578,-84.36489,
AGG ASSAULT,170511676,02/20/2017,3131 CAMPBELLTON RD SW,409,Southwest,R,33.69252,-84.49134,
LARCENY-FROM VEHICLE,170511722,02/20/2017,100 BISCAYNE DR NW,205,,C,33.81524,-84.3937,
LARCENY-FROM VEHICLE,170511728,02/20/2017,2964 PEACHTREE RD NW,206,Peachtree Heights West,B,33.8358,-84.38339,
AGG ASSAULT,170511732,02/20/2017,2291 FAIRBURN RD SW,412,Kings Forest,P,33.69211,-84.51148,
RAPE,170511772,02/20/2017, 738 DILL AVE SW ,301,Capitol View,X,33.71829,-84.41184,
LARCENY-NON VEHICLE,170511794,02/20/2017,190 MARIETTA ST NW @CNN CENTER,507,Downtown,M,33.75757,-84.39487,
AUTO THEFT,170511845,02/20/2017,512 RALPH MCGILL BLVD NE,603,Old Fourth Ward,M,33.76417,-84.37053,
ROBBERY-COMMERCIAL,170511852,02/20/2017,132 JOSEPH E LOWERY BLVD NW,105,Washington Park,K,33.75871,-84.41774,
LARCENY-FROM VEHICLE,170511892,02/20/2017,3255 PEACHTREE RD NE ,208,Peachtree Park,B,33.84391,-84.37083,
AUTO THEFT,170511921,02/20/2017,1790 S OLYMPIAN WAY SW,404,Westview,T,33.73519,-84.44662,
LARCENY-FROM VEHICLE,170511960,02/20/2017,360 MARIETTA ST NW,507,Downtown,M,33.76269,-84.39702,
LARCENY-FROM VEHICLE,170511987,02/20/2017,807 ATLANTA STUDENT MOVE BLVD SW,101,Atlanta University Center,T,33.74955,-84.41397,
LARCENY-NON VEHICLE,170512012,02/20/2017,2841 GREENBRIAR PKWY SW @GREENBRIAR MALL,411,Greenbriar,R,33.68845,-84.49328,
LARCENY-NON VEHICLE,170512110,02/20/2017,2001 JAMES JACKSON PKWY NW,203,Riverside,D,33.81063,-84.47569,
AUTO THEFT,170512132,02/20/2017,2835 BROWNS MILL RD SE,312,Glenrose Heights,Z,33.67742,-84.38448,
BURGLARY-RESIDENCE,170512206,02/20/2017,762 LEXINGTON AVE SW,301,Adair Park,V,33.7249,-84.41248,
LARCENY-NON VEHICLE,170512252,02/20/2017,134 PEACHTREE ST NW,508,Downtown,M,33.75719,-84.38806,
LARCENY-FROM VEHICLE,170512286,02/20/2017,1044 Washita AVE,602,Inman Park,N,33.76311,-84.35218,
BURGLARY-NONRES,170512328,02/20/2017,415 ARMOUR DR NE,212,,F,33.81267,-84.37412,
LARCENY-NON VEHICLE,170512335,02/20/2017,305 OLD IVY RD NE,209,North Buckhead,B,33.85618,-84.37696,
LARCENY-FROM VEHICLE,170512379,02/20/2017,215 NORTH AVE NE,603 ,Old Fourth Ward,M,33.77117,-84.38025,
LARCENY-FROM VEHICLE,170512439,02/20/2017,2841 GREENBRIAR PKWY SW @GREENBRIAR MALL,411,Greenbriar,R,33.68845,-84.49328,
LARCENY-FROM VEHICLE,170512535,02/20/2017,144 PONCE DE LEON AVE NE,505,Midtown,E,33.77255,-84.38249,
LARCENY-NON VEHICLE,170512567,02/20/2017,4279 ROSWELL RD NE,209,North Buckhead,B,33.87121,-84.37931,
ROBBERY-COMMERCIAL,170512628,02/20/2017,1294 DONNELLY AVE SW,402,West End,T,33.73453,-84.43003,
LARCENY-NON VEHICLE,170512649,02/20/2017,3393 PEACHTREE RD NE @LENOX MALL,210,Lenox,B,33.84676,-84.36212,
BURGLARY-RESIDENCE,170512665,02/20/2017,1448 ROME DR NW,105,Hunter Hills,K,33.76282,-84.43532,
LARCENY-FROM VEHICLE,170512682,02/20/2017,144 MORELAND AVE NE,606,Reynoldstown,N,33.75698,-84.34929,
LARCENY-FROM VEHICLE,170512684,02/20/2017,961 VIRGINIA AVE NE,601,Virginia Highland,F,33.78195,-84.35588,
LARCENY-FROM VEHICLE,170512688,02/20/2017,1284 W PACES FERRY RD NW,202,West Paces Ferry/Northside,A,33.84862,-84.42869,
LARCENY-NON VEHICLE,170512724,02/20/2017,3534 MARTIN L KING JR DR SW,407,Adamsville,H,33.75771,-84.50344,
AGG ASSAULT,170512732,02/20/2017,3517 OAKSHIRE WAY WAY SE,313,South River Gardens,Z,33.65529,-84.35453,
LARCENY-NON VEHICLE,170512814,02/20/2017,2350 CHESHIRE BRIDGE RD NE,212,Lindridge/Martin Manor,F,33.8195,-84.35199,
LARCENY-FROM VEHICLE,170512832,02/20/2017,699 11TH ST NW,501,Home Park,E,33.78326,-84.41016,
BURGLARY-RESIDENCE,170512903,02/20/2017,843 VIRGIL ST NE,602,Inman Park,N,33.75856,-84.35995,
AUTO THEFT,170512915,02/20/2017,306 PONCE DE LEON AVE.,505,Midtown,E,33.7726,-84.37708,
LARCENY-NON VEHICLE,170502330,02/20/2017,1358 GLENWOOD AVENUE,612,East Atlanta,W,33.74039,-84.34318,
ROBBERY-PEDESTRIAN,170502357,02/19/2017,1694 AVON AVE SW,408,Venetian Hills,S,33.72242,-84.44297,
AUTO THEFT,170502414,02/19/2017,3270 WELLINGTON WALK SW,414,Princeton Lakes,P,33.6608,-84.51578,
RAPE,170502416,02/19/2017,565 MAIN ST NE,211,Lindbergh/Morosgo,B,33.8224,-84.36851,
LARCENY-FROM VEHICLE,170502422,02/19/2017,500 AMSTERDAM AVE NE,213,Morningside/Lenox Park,F,33.78856,-84.36992,
LARCENY-NON VEHICLE,170502439,02/19/2017,1049 PONCE DE LEON AVE NE,602,Poncey-Highland,N,33.77315,-84.35304,
LARCENY-FROM VEHICLE,170502460,02/19/2017,1600 PIEDMONT AVE NE,213,Piedmont Heights,F,33.79816,-84.36838,
ROBBERY-PEDESTRIAN,170502524,02/19/2017,259 PETERS ST SW,507,Castleberry Hill,M,33.7474,-84.4019,
LARCENY-FROM VEHICLE,170502552,02/19/2017,909 PONCE DE LEON AVE NE ,601,,N,33.77382,-84.35733,
AUTO THEFT,170502556,02/19/2017,445 CLEVELAND AVE. SE ,310,Rosedale Heights,Z,33.68013,-84.37757,
LARCENY-FROM VEHICLE,170502568,02/19/2017,428 PONCE DE LEON AVE NE,506,Midtown,E,33.77333,-84.37336,
AUTO THEFT,170502575,02/19/2017,1069 WASHINGTON HEIGHTS TER NW,105,Washington Park,K,33.76147,-84.42254,
AUTO THEFT,170502586,02/19/2017,1075 PEACHTREE WALK NE,503,Midtown,E,33.78366,-84.38606,
LARCENY-FROM VEHICLE,170502634,02/19/2017,171 AUBURN AVE NE ,510,Downtown,M,33.75546,-84.38185,
BURGLARY-RESIDENCE,170502653,02/19/2017,2453 CORONET WAY NW,201,,C,33.8209,-84.44958,
LARCENY-FROM VEHICLE,170502668,02/19/2017,330 MARIETTA ST NW,507,Downtown,M,33.76212,-84.39669,
LARCENY-NON VEHICLE,170508003,02/19/2017,8700 SPINE RD,703,,,33.64085,-84.43915,
BURGLARY-RESIDENCE,170500079,02/19/2017,1999 BENT CREEK WAY SW,410,Campbellton Road,R,33.70087,-84.46574,
BURGLARY-RESIDENCE,170500235,02/19/2017,1117 GARIBALDI ST SW,302,Pittsburgh,V,33.72432,-84.39941,
AUTO THEFT,170500376,02/19/2017,719 ALINE DR NW,112,Collier Heights,I,33.77498,-84.48875,
LARCENY-FROM VEHICLE,170500504,02/19/2017,3179 PEACHTREE RD NE ,206,Buckhead Village,B,33.84103,-84.37544,
AUTO THEFT,170500555,02/19/2017,1339 ELAINE AVE NW,203,Blandtown,D,33.79116,-84.42872,
BURGLARY-NONRES,170500605,02/19/2017,3030 HEADLAND DR SW,411,Greenbriar,R,33.68841,-84.48742,
LARCENY-FROM VEHICLE,170500635,02/19/2017,634 NORTHSIDE DR SW,303,Pittsburgh,V,33.73995,-84.40807,
LARCENY-FROM VEHICLE,170500779,02/19/2017,372 FAIRBURN RD NW,111,Adamsville,H,33.76561,-84.50039,
LARCENY-FROM VEHICLE,170500830,02/19/2017,3909 CAMPBELLTON RD SW,412,Kings Forest,P,33.6924,-84.51637,
LARCENY-FROM VEHICLE,170500894,02/19/2017,3378 GREENBRIAR PKWY SW;,413,,P,33.68387,-84.50204,
LARCENY-FROM VEHICLE,170500907,02/19/2017,716 STOKESWOOD AVE SE,612,East Atlanta,W,33.73463,-84.34447,
LARCENY-NON VEHICLE,170500928,02/19/2017,2060 PEACHTREE RD NW,207,,E,33.81115,-84.39289,
BURGLARY-NONRES,170500983,02/19/2017,542 BOULEVARD NE,603,Old Fourth Ward,M,33.7691,-84.37223,
AUTO THEFT,170500985,02/19/2017,364 ELMIRA PL NE,608,Candler Park,N,33.7639,-84.347,
LARCENY-FROM VEHICLE,170501023,02/19/2017,888 OGLETHORPE AVE SW,401,West End,T,33.73561,-84.41706,
LARCENY-FROM VEHICLE,170501046,02/19/2017,306 LUCKIE ST NW,508,Downtown,M,33.76225,-84.39583,
BURGLARY-RESIDENCE,170501051,02/19/2017,257 CHALMERS DR NW,112,Collier Heights,I,33.76239,-84.4767,
LARCENY-FROM VEHICLE,170501056,02/19/2017,842 N HIGHLAND AVE NE,601,Virginia Highland,F,33.7775,-84.3529,
LARCENY-FROM VEHICLE,170501071,02/19/2017,36 JOHN PORTMAN BLVD NE,509,Downtown,M,33.76074,-84.38561,
LARCENY-FROM VEHICLE,170501073,02/19/2017,1050 WELCH ST SW,302,Pittsburgh,V,33.72624,-84.40464,
LARCENY-FROM VEHICLE,170501094,02/19/2017,3378 GREENBRIAR PKWY SW;,413,,P,33.68387,-84.50204,
LARCENY-FROM VEHICLE,170501101,02/19/2017,390 STOVALL ST SE,606,Ormewood Park,W,33.7436,-84.35429,
AUTO THEFT,170501124,02/19/2017,349 DECATUR ST SE,604,Sweet Auburn,M,33.74988,-84.37788,
LARCENY-FROM VEHICLE,170501159,02/19/2017,850 PIEDMONT AVE NE,505,Midtown,E,33.77778,-84.38137,
LARCENY-FROM VEHICLE,170501206,02/19/2017,2130 SOUTHWOOD CV SW,412,Ben Hill Terrace,P,33.69598,-84.5183,
AGG ASSAULT,170501213,02/19/2017,2178 BOLLINGBROOK DR SW,406,Beecher Hills,I,33.73503,-84.46048,
AUTO THEFT,170501221,02/19/2017,1155 LAVISTA RD NE,212,Lindridge/Martin Manor,F,33.81806,-84.35082,
LARCENY-FROM VEHICLE,170501277,02/19/2017,349 DECATUR ST SE,604,Sweet Auburn,M,33.74993,-84.37706,
AUTO THEFT,170501296,02/19/2017,960 CONSTITUTION RD SE,308,Norwood Manor,Z,33.69307,-84.35805,
LARCENY-FROM VEHICLE,170501349,02/19/2017,2446 SUSAN LN SW;,413,Mellwood,P,33.68805,-84.50761,
LARCENY-FROM VEHICLE,170501428,02/19/2017,1961 METROPOLITAN PKWY SW,306,Sylvan Hills,X,33.70105,-84.40854,
AGG ASSAULT,170501434,02/19/2017,21 ALLEN TEMPLE CT NW,111,,I,33.75486,-84.491,
LARCENY-FROM VEHICLE,170501454,02/19/2017,2440 MAIN ST NW,110,Scotts Crossing,G,33.80344,-84.46806,
LARCENY-NON VEHICLE,170501459,02/19/2017,900 JOSEPH E BOONE BLVD NW,102,Vine City,L,33.76337,-84.41688,
LARCENY-NON VEHICLE,170501548,02/19/2017,2045 DONALD LEE HOLLOWELL PKWY NW,107,Grove Park,J,33.7774,-84.45214,
LARCENY-FROM VEHICLE,170501603,02/19/2017,2021 MANCHESTER ST NE,212,Morningside/Lenox Park,F,33.80998,-84.36308,
LARCENY-FROM VEHICLE,170501670,02/19/2017,547 HUNT ST NE,603,Old Fourth Ward,M,33.76965,-84.37467,
BURGLARY-RESIDENCE,170501757,02/19/2017,2160 LA DAWN LN NW,203,Bolton,D,33.81582,-84.45839,
BURGLARY-RESIDENCE,170501764,02/19/2017,1230 WESTRIDGE RD SW,408,Venetian Hills,S,33.72167,-84.44656,
BURGLARY-RESIDENCE,170501796,02/19/2017,1711 WESTHAVEN DR SW,404,Cascade Avenue/Road,S,33.73279,-84.44388,
LARCENY-NON VEHICLE,170501820,02/19/2017,3393 PEACHTREE RD NE @LENOX MALL,210,Lenox,B,33.84676,-84.36212,
LARCENY-NON VEHICLE,170501857,02/19/2017,1683 LAKEWOOD AVE. ,307,Lakewood Heights,Y,33.70735,-84.38009,
LARCENY-NON VEHICLE,170502006,02/19/2017,3334 PEACHTREE RD NE @ONE BUCKHEAD LOOP,208,North Buckhead,B,33.84911,-84.37075,
LARCENY-NON VEHICLE,170502031,02/19/2017,2636 MARTIN LUTHER KING JR DR SW,405,,I,33.75527,-84.48577,
LARCENY-FROM VEHICLE,170502041,02/19/2017,2852 CASCADE RD SW @CASCADE SPRINGS NATU,409,Cascade Heights,I,33.71785,-84.47959,
LARCENY-NON VEHICLE,170502113,02/19/2017,1959 LAKEWOOD AVE SE,307,Lakewood Heights,Y,33.70262,-84.38491,
LARCENY-NON VEHICLE,170502142,02/19/2017,548 NORTHSIDE DR NW,103,English Avenue,L,33.7697,-84.40508,
LARCENY-FROM VEHICLE,170502181,02/19/2017,853 BROOKLINE ST SW,301,Adair Park,V,33.72768,-84.4151,
LARCENY-FROM VEHICLE,170502223,02/19/2017,2975 HEADLAND DR SW @BIG LOTS - HEADLAND,411,Greenbriar,R,33.69168,-84.4872,
BURGLARY-RESIDENCE,170502274,02/19/2017,1725 BEECHER ST SW,404,Westview,T,33.73385,-84.44416,
LARCENY-FROM VEHICLE,170490025,02/18/2017,8 6TH ST NE,505,Midtown,E,33.77762,-84.3869,
AGG ASSAULT,170490029,02/18/2017,422 MCAFEE ST NW,504,Downtown,M,33.7657,-84.39468,
AUTO THEFT,170490079,02/18/2017,866 W PEACHTREE ST NW,505,Midtown,E,33.77822,-84.38772,
BURGLARY-RESIDENCE,170490428,02/18/2017,499 NORTHSIDE CIR NW,207,Loring Heights,E,33.79742,-84.40671,
AGG ASSAULT,170490443,02/18/2017,1739 CHESHIRE BRIDGE RD NE,213,Morningside/Lenox Park,F,33.80748,-84.36519,
ROBBERY-PEDESTRIAN,170490503,02/18/2017,349 CLEVELAND AVE,311,Perkerson,X,33.68123,-84.40109,
LARCENY-FROM VEHICLE,170490524,02/18/2017,98 WILLIAM H BORDERS DR SE @SELENA S BUTLER PARK,604,Sweet Auburn,M,33.75118,-84.37486,
LARCENY-FROM VEHICLE,170490718,02/18/2017,2416 PIEDMONT RD NE,211,Lindbergh/Morosgo,B,33.82098,-84.3685,
BURGLARY-RESIDENCE,170490769,02/18/2017,370 NORTHSIDE DR NW,103,English Avenue,L,33.76507,-84.4042,
LARCENY-FROM VEHICLE,170490781,02/18/2017,240 AMAL DR SW,307,Betmar LaVilla,Y,33.70655,-84.39492,
LARCENY-FROM VEHICLE,170490814,02/18/2017,360 MARIETTA ST NW,507,Downtown,M,33.76269,-84.39702,
LARCENY-FROM VEHICLE,170490857,02/18/2017,145 EDGEWOOD AVE SE,510,Downtown,M,33.75421,-84.38294,
BURGLARY-RESIDENCE,170490869,02/18/2017,460 LYNN VALLEY RD SW,406,,I,33.73741,-84.48336,
AGG ASSAULT,170490912,02/18/2017,98 WILLIAM H BORDERS DR SE @SELENA S BUTLER PARK,604,Sweet Auburn,M,33.75299,-84.37606,
BURGLARY-RESIDENCE,170490936,02/18/2017,219 LITTLE ST SE,304,Summerhill,V,33.73294,-84.38063,
LARCENY-FROM VEHICLE,170490952,02/18/2017,3141 WELMINGHAM DR SW,414,Princeton Lakes,P,33.66523,-84.51711,
AUTO THEFT,170491050,02/18/2017,3330 PIEDMONT RD NE @Multiple,208,Buckhead Forest,B,33.84564,-84.37462,
LARCENY-NON VEHICLE,170491197,02/18/2017,1801 HOWELL MILL RD NW,204,Berkeley Park,D,33.80388,-84.41278,
AUTO THEFT,170491217,02/18/2017,664 BELLEMEADE AVE NW,207,Berkeley Park,D,33.80007,-84.40995,
LARCENY-FROM VEHICLE,170491236,02/18/2017,1512 PIEDMONT AVE NE,213,Piedmont Heights,F,33.79619,-84.37048,
LARCENY-NON VEHICLE,170491257,02/18/2017,406 PAINES AVE NW,103,English Avenue,L,33.76576,-84.41491,
LARCENY-FROM VEHICLE,170491280,02/18/2017,555 WHITEHALL ST SW,303,Mechanicsville,V,33.74297,-84.40628,
LARCENY-NON VEHICLE,170491312,02/18/2017,275 BAKER  STREET NW,508,Downtown,M,33.76206,-84.39568,
LARCENY-FROM VEHICLE,170491313,02/18/2017,900 MONROE DR NE,506,Midtown,E,33.77916,-84.36967,
BURGLARY-RESIDENCE,170491360,02/18/2017,791 WOODLAND AVE SE,607,Ormewood Park,W,33.7328,-84.35173,
BURGLARY-NONRES,170491368,02/18/2017,1127 GLENWOOD AVE SE,607,Ormewood Park,W,33.74019,-84.35028,
LARCENY-FROM VEHICLE,170491379,02/18/2017,503 PEEPLES ST SW,401,West End,T,33.74121,-84.42084,
AUTO THEFT,170491412,02/18/2017,265 PEACHTREE ST NE @HYATT REGENCY HOTEL,509,Downtown,M,33.76152,-84.38672,
BURGLARY-RESIDENCE,170491516,02/18/2017,2024 CONRAD AVE SE,307,Lakewood Heights,Y,33.69892,-84.3813,
AUTO THEFT,170491594,02/18/2017,264 BOOKER ST,302,Joyland,Y,33.7122,-84.39763,
LARCENY-FROM VEHICLE,170491598,02/18/2017,878 PEACHTREE ST NE,505,Midtown,E,33.7788,-84.38438,
BURGLARY-RESIDENCE,170491628,02/18/2017,1994 BENT CREEK WAY SW,410,Campbellton Road,R,33.7011,-84.46631,
LARCENY-NON VEHICLE,170491635,02/18/2017,210 PEACHTREE ST NW @WESTIN HOTEL,508,Downtown,M,33.75943,-84.38837,
LARCENY-NON VEHICLE,170491641,02/18/2017,2636 MARTIN LUTHER KING JR DR SW,405,Harland Terrace,I,33.75277,-84.47429,
LARCENY-FROM VEHICLE,170491706,02/18/2017,1726 FAIRBURN RD SW,412,Heritage Valley,P,33.7071,-84.50666,
LARCENY-FROM VEHICLE,170491731,02/18/2017,3365 PIEDMONT RD NE,208,North Buckhead,B,33.84687,-84.37284,
LARCENY-FROM VEHICLE,170491815,02/18/2017,3735 ROSWELL RD NE,209,North Buckhead,B,33.85704,-84.38166,
LARCENY-NON VEHICLE,170491831,02/18/2017,835 MARTIN L KING JR DR NW,102,Vine City,L,33.75504,-84.41457,
LARCENY-NON VEHICLE,170491844,02/18/2017,3223 CAINS HILL PL NW,206,South Tuxedo Park,B,33.84251,-84.38044,
BURGLARY-RESIDENCE,170491845,02/18/2017,2262 1ST AVE NE,610,Kirkwood,O,33.75504,-84.31354,
LARCENY-FROM VEHICLE,170491870,02/18/2017,HUMPHRIES ST SW / GLENN ST SW,303,Mechanicsville,V,33.73815,-84.40435,
LARCENY-FROM VEHICLE,170492024,02/18/2017,3833 PRINCETON LAKES CT SW,414,Princeton Lakes,P,33.65684,-84.51316,
LARCENY-FROM VEHICLE,170492036,02/18/2017,170 NORTHSIDE DR SW,507,Castleberry Hill,M,33.7499,-84.40371,
LARCENY-FROM VEHICLE,170492056,02/18/2017,1968 PEACHTREE RD NW @PIEDMONT HOSPITAL,207,,E,33.81,-84.39583,
LARCENY-FROM VEHICLE,170492083,02/18/2017,842 N HIGHLAND AVE NE,601,Virginia Highland,F,33.7775,-84.3529,
LARCENY-FROM VEHICLE,170492238,02/18/2017,445 HUNNICUTT ST NW,504,Downtown,M,33.76665,-84.39611,
LARCENY-FROM VEHICLE,170492390,02/18/2017,1752 BUCKEYE ST SW,306,Sylvan Hills,X,33.70742,-84.41713,
BURGLARY-NONRES,170492404,02/18/2017,925 CANTERBURY RD NE,210,Pine Hills,B,33.8278,-84.3563,
AUTO THEFT,170492503,02/18/2017,178 MOURY AVE SW,305,The Villages at Carver,Y,33.71347,-84.39079,
BURGLARY-RESIDENCE,170492525,02/18/2017,1754 RICHMOND CIR SE,307,Lakewood Heights,Y,33.70698,-84.3745,
LARCENY-FROM VEHICLE,170492585,02/18/2017,820 RALPH MCGILL BLVD,602,Poncey-Highland,N,33.7688,-84.36149,
LARCENY-FROM VEHICLE,170492641,02/18/2017,857 KINGS CT NE,213,Morningside/Lenox Park,F,33.7884,-84.35899,
LARCENY-NON VEHICLE,170492673,02/18/2017,895 RALPH D ABERNATHY BLVD SW,401,West End,T,33.7398,-84.41751,
AGG ASSAULT,170492715,02/18/2017,49 BOULEVARD SE,604,Sweet Auburn,M,33.75275,-84.37186,
LARCENY-FROM VEHICLE,170492725,02/18/2017,102 GILMER ST SE,510,Downtown,M,33.75282,-84.38425,
LARCENY-FROM VEHICLE,170492746,02/18/2017,1190 HUFF RD NW,203,Blandtown,D,33.78869,-84.427,
LARCENY-FROM VEHICLE,170492799,02/18/2017,678 10TH ST NW,501,Home Park,E,33.78128,-84.4097,
LARCENY-FROM VEHICLE,170492804,02/18/2017,226 NORTHSIDE DR SW,507,Castleberry Hill,M,33.74816,-84.4048,
LARCENY-FROM VEHICLE,170492833,02/18/2017,679 EDGEWOOD AVE NE,602,Inman Park,N,33.75429,-84.36484,
BURGLARY-RESIDENCE,170492888,02/18/2017,3377 ARDLEY RD SW,406,Green Acres Valley,I,33.72907,-84.49889,
LARCENY-NON VEHICLE,170498021,02/18/2017,6000 S TERMINAL PKWY SW,706,,,33.64069,-84.44388,
LARCENY-NON VEHICLE,170498045,02/18/2017,13700 SPINE RD,710,,,33.64367,-84.42547,
LARCENY-NON VEHICLE,170532338,02/18/2017,2284 CASCADE AVE SW,409,Adams Park,R,33.72236,-84.46325,
ROBBERY-RESIDENCE,170480056,02/17/2017,1436 BLYSS AVE NW,107,Grove Park,J,33.7697,-84.43466,
LARCENY-FROM VEHICLE,170480114,02/17/2017,340 MARIETTA ST NW,507,Downtown,M,33.76234,-84.39683,
AUTO THEFT,170480206,02/17/2017,1195 MILTON TER SE,305,Chosewood Park,Y,33.72186,-84.38105,
AUTO THEFT,170480288,02/17/2017,2100 METROPOLITAN PKWY SW,306,Sylvan Hills,X,33.697,-84.40768,
LARCENY-FROM VEHICLE,170480290,02/17/2017,314 LUCKIE ST NW,508,Downtown,M,33.76296,-84.39669,
LARCENY-FROM VEHICLE,170480531,02/17/2017,1302 W PEACHTREE ST NW,502,Midtown,E,33.79007,-84.3883,
LARCENY-NON VEHICLE,170480608,02/17/2017,818 POLLARD BLVD SE,304,Summerhill,V,33.73249,-84.39017,
LARCENY-FROM VEHICLE,170480776,02/17/2017,2433 BLACK FOREST TRL SW;,411,Greenbriar,R,33.68081,-84.48907,
LARCENY-FROM VEHICLE,170480780,02/17/2017,849 MARCUS ST SE,606,Reynoldstown,N,33.75061,-84.35945,
LARCENY-FROM VEHICLE,170480787,02/17/2017,2800 MARTIN L KING JR DR SW,405,Harland Terrace,I,33.75315,-84.47892,
LARCENY-NON VEHICLE,170480930,02/17/2017,4405 NORTHSIDE PKWY NW,201,Paces,A,33.8661,-84.45239,
LARCENY-FROM VEHICLE,170480940,02/17/2017,1955 LA DAWN LN NW,203,Bolton,D,33.81574,-84.45269,
BURGLARY-NONRES,170481086,02/17/2017,1449 DONNELLY AVE SW,402,West End,T,33.73818,-84.43483,
LARCENY-FROM VEHICLE,170481119,02/17/2017,659 AUBURN AVE NE,604,Old Fourth Ward,M,33.75694,-84.36627,
BURGLARY-RESIDENCE,170481142,02/17/2017,3290 W ROXBORO RD NE,210,Pine Hills,B,33.84491,-84.34984,
AUTO THEFT,170481178,02/17/2017,805 ROSEMARY AVE SW ,406,Cascade Avenue/Road,S,33.73331,-84.44522,
LARCENY-FROM VEHICLE,170481286,02/17/2017,850 PIEDMONT AVE NE,505,Midtown,E,33.77803,-84.38159,
ROBBERY-PEDESTRIAN,170481289,02/17/2017,2766 METROPOLITAN PKWY SW,311,Hammond Park,X,33.67967,-84.40736,
LARCENY-NON VEHICLE,170481347,02/17/2017,2175 LENOX RD NE,213,Lindridge/Martin Manor,F,33.81394,-84.35152,
LARCENY-NON VEHICLE,170481372,02/17/2017,464 MORELAND AVE NE,602,Inman Park,N,33.76686,-84.34915,
LARCENY-FROM VEHICLE,170481379,02/17/2017,1903 DREW DR NW,110,West Highlands,G,33.79214,-84.44947,
LARCENY-FROM VEHICLE,170481386,02/17/2017,2641 BLACK FOREST TRL SW,411,Greenbriar,R,33.68348,-84.48734,
LARCENY-NON VEHICLE,170481393,02/17/2017,537 PARK AVE SE @CYCLORAMA,605,Grant Park,W,33.74029,-84.3699,
BURGLARY-RESIDENCE,170481411,02/17/2017,78 WHITEFOORD AVE SE,609,Edgewood,O,33.75125,-84.34195,
AUTO THEFT,170481470,02/17/2017,3123 HICKMAN DR NW,111,,I,33.75459,-84.48906,
BURGLARY-RESIDENCE,170481540,02/17/2017,3746 MAYS XING SW,407,Fairburn Mays,H,33.73391,-84.51284,
LARCENY-NON VEHICLE,170481592,02/17/2017,2310 MARTIN L KING JR DR SW,405,Florida Heights,I,33.75121,-84.46544,
LARCENY-FROM VEHICLE,170481613,02/17/2017,25 BRADLEY ST SE,604,Old Fourth Ward,M,33.75383,-84.36894,
BURGLARY-RESIDENCE,170481619,02/17/2017,362 6TH ST NE,506,Midtown,E,33.77641,-84.37545,
LARCENY-NON VEHICLE,170481656,02/17/2017,1209 MCGILL PARK,603,Old Fourth Ward,M,33.76217,-84.37581,
LARCENY-NON VEHICLE,170481672,02/17/2017,933 PEACHTREE ST NE,503,Midtown,E,33.78013,-84.38355,
LARCENY-FROM VEHICLE,170481686,02/17/2017,3630 PEACHTREE RD NE,209,North Buckhead,B,33.85404,-84.35831,
LARCENY-NON VEHICLE,170481692,02/17/2017,2690 LENOX RD  NE,210,Pine Hills,B,33.82731,-84.3548,
BURGLARY-RESIDENCE,170481712,02/17/2017,3517 OAKSHIRE WAY SE,313,South River Gardens,Z,33.65529,-84.35453,
AUTO THEFT,170481722,02/17/2017,260 PEACHTREE ST NE @ PUBLIC PARKING,508,Downtown,M,33.76149,-84.38789,
AGG ASSAULT,170481761,02/17/2017,516 MAGNOLIA ST NW,102,Vine City,L,33.75794,-84.40449,
LARCENY-NON VEHICLE,170481793,02/17/2017,2045 DONALD LEE HOLLOWELL PKWY NW,107,Grove Park,J,33.7774,-84.45214,
BURGLARY-RESIDENCE,170481803,02/17/2017,2610 MARTIN L KING JR DR SW,405,Harland Terrace,I,33.75368,-84.47364,
BURGLARY-NONRES,170481820,02/17/2017,1085 LINDBERGH DR NE ,212,Lindridge/Martin Manor,F,33.81842,-84.35253,
LARCENY-FROM VEHICLE,170481839,02/17/2017,372 ATLANTA AVE SE,605,Grant Park,W,33.73051,-84.37529,
LARCENY-FROM VEHICLE,170481878,02/17/2017,505 FULTON ST SW,303,Mechanicsville,V,33.74182,-84.40329,
LARCENY-NON VEHICLE,170481981,02/17/2017,500 NORTHSIDE CIR NW,207,Loring Heights,E,33.79724,-84.40668,
LARCENY-FROM VEHICLE,170482020,02/17/2017,1317 LOGAN CIR NW,204,Underwood Hills,D,33.80539,-84.43058,
LARCENY-FROM VEHICLE,170482028,02/17/2017,1314 GLENWOOD AVE SE,612,East Atlanta,W,33.74035,-84.34459,
LARCENY-NON VEHICLE,170482029,02/17/2017,41 IRBY DR NE,206,Buckhead Village,B,33.84008,-84.37231,
RAPE,170482044,02/17/2017,180 JACKSON ST NE,604,Downtown,M,33.74816,-84.39459,
LARCENY-FROM VEHICLE,170482091,02/17/2017,304 OAKLAND AVE SE,605,Grant Park,W,33.74638,-84.37466,
BURGLARY-RESIDENCE,170482115,02/17/2017,102 ATLANTA AVE SE,304,Peoplestown,V,33.73063,-84.38455,
ROBBERY-PEDESTRIAN,170482243,02/17/2017,384 PEACE AVE NE,603,Old Fourth Ward,M,33.76509,-84.37294,
LARCENY-FROM VEHICLE,170482259,02/17/2017,130 KROG ST NE,602,Inman Park,N,33.75806,-84.3643,
AUTO THEFT,170482269,02/17/2017,2591 ETHERIDGE DR NW,113,Carey Park,G,33.7881,-84.47292,
LARCENY-NON VEHICLE,170482292,02/17/2017,820 RALPH MCGILL BLVD NE,602,Poncey-Highland,N,33.7688,-84.36149,
LARCENY-FROM VEHICLE,170482426,02/17/2017,1801 HOWELL MILL RD NW,204,Berkeley Park,D,33.80388,-84.41278,
BURGLARY-NONRES,170482482,02/17/2017,510 MCDONOUGH BLVD SE,305,Chosewood Park,Y,33.71392,-84.37118,
AGG ASSAULT,170482514,02/17/2017,673 LYRIC WAY NW,112,Collier Heights,I,33.77377,-84.47694,
LARCENY-NON VEHICLE,170482663,02/17/2017,3393 PEACHTREE RD NE @LENOX MALL,210,Lenox,B,33.84676,-84.36212,
BURGLARY-RESIDENCE,170482759,02/17/2017,1990 ROCKLEDGE RD NE,212,Morningside/Lenox Park,F,33.80968,-84.36487,
RAPE,170482808,02/17/2017,2069 SANDTOWN RD SW,409,Adams Park,R,33.72052,-84.45466,
LARCENY-FROM VEHICLE,170482828,02/17/2017,1241 MORELAND AVE SE @SUNSHINE PLAZA SC,607,Woodland Hills,W,33.72055,-84.35045,
LARCENY-FROM VEHICLE,170482853,02/17/2017,1385 COLLIER RD NW,204,Underwood Hills,D,33.81089,-84.43371,
LARCENY-NON VEHICLE,170482893,02/17/2017,1740 CHESHIRE BRIDGE RD NE,212,Morningside/Lenox Park,F,33.80829,-84.36553,
LARCENY-NON VEHICLE,170482894,02/17/2017,2685 METROPOLITAN PKWY SW,309,Perkerson,X,33.68274,-84.40902,
AGG ASSAULT,170482935,02/17/2017,120 ANDERSON AVE NW,108,Dixie Hills,J,33.75734,-84.45478,
AUTO THEFT,170482956,02/17/2017,3660 CAMP CREEK PKWY SW,414,Princeton Lakes,P,33.65486,-84.50787,
LARCENY-FROM VEHICLE,170482972,02/17/2017,3755 CARMIA DR SW,414,Princeton Lakes,P,33.6569,-84.51004,
LARCENY-FROM VEHICLE,170483013,02/17/2017,1634 MCLENDON AVE NE,608,Candler Park,N,33.765,-84.33395,
ROBBERY-PEDESTRIAN,170483058,02/17/2017,3947 FENNEL CIR SW,407,Wilson Mill Meadows,H,33.75281,-84.51658,
LARCENY-NON VEHICLE,170483142,02/17/2017,190 MARIETTA ST NW @CNN CENTER,507,Downtown,M,33.75757,-84.39487,
ROBBERY-PEDESTRIAN,170483179,02/17/2017,2410 BENJAMIN E MAYS DR SW,406,Cascade Heights,I,33.72262,-84.46641,
LARCENY-NON VEHICLE,170488043,02/17/2017,6000 N TERMINAL PKWY,705,,,33.64184,-84.4477,
LARCENY-NON VEHICLE,170488055,02/17/2017,6000 NORTH TERMINAL,703,,,33.64069,-84.44388,
ROBBERY-RESIDENCE,170470148,02/16/2017,553 WOODALL AVE NE,602,Poncey-Highland,N,33.76934,-84.35983,
LARCENY-FROM VEHICLE,170470163,02/16/2017,3755 CARMIA DR SW,414,Princeton Lakes,P,33.65571,-84.50908,
BURGLARY-NONRES,170470345,02/16/2017,3830 CAMP CREEK PKWY SW,414,Princeton Lakes,P,33.65638,-84.5141,
AUTO THEFT,170470438,02/16/2017,2095 METROPOLITAN PKWY SW@BP GAS STATION,306,Sylvan Hills,X,33.69753,-84.4084,
AUTO THEFT,170470724,02/16/2017,320 LUCKIE ST NW,508,Downtown,M,33.7632,-84.39637,
LARCENY-FROM VEHICLE,170470793,02/16/2017,2400 PARKLAND DR NE,211,Lindbergh/Morosgo,B,33.82006,-84.36502,
RAPE,170470835,02/16/2017,1475 NORTH AVE NW,107,Grove Park,J,33.76819,-84.43589,
AUTO THEFT,170470859,02/16/2017,49 BOULEVARD SE,604,Sweet Auburn,M,33.75275,-84.37186,
LARCENY-NON VEHICLE,170470873,02/16/2017,1333 LOGAN CIR NW,204,Underwood Hills,D,33.80539,-84.43103,
BURGLARY-NONRES,170470886,02/16/2017,720 RALPH MCGILL BLVD NE,603,Old Fourth Ward,M,33.76626,-84.36428,
BURGLARY-NONRES,170470967,02/16/2017,3830 PRINCETON LAKES CT SW,414,Princeton Lakes,P,33.65666,-84.51318,
BURGLARY-RESIDENCE,170470999,02/16/2017,650 LYRIC WAY NW,112,Collier Heights,I,33.77304,-84.47748,
AGG ASSAULT,170471026,02/16/2017,751 COOPER ST SW,303,Mechanicsville,V,33.73426,-84.39711,
AUTO THEFT,170471036,02/16/2017,540 HUMPHRIES ST SW,303,Mechanicsville,V,33.7399,-84.40488,
LARCENY-FROM VEHICLE,170471050,02/16/2017,226 COURTLAND ST NE,509,Downtown,M,33.76051,-84.38429,
LARCENY-NON VEHICLE,170471060,02/16/2017,3116 ROSWELL RD NW,206,South Tuxedo Park,B,33.84075,-84.37977,
LARCENY-FROM VEHICLE,170471075,02/16/2017,1032 VELTRE CIR SW,406,Audobon Forest West,I,33.72532,-84.47831,
LARCENY-FROM VEHICLE,170471127,02/16/2017,2044 METROPOLITAN PKWY SW,306,Thomasville Heights,Z,33.6986,-84.3501,
AGG ASSAULT,170471153,02/16/2017,3450 N CAMP CREEK PKWY SW,414,,P,33.67105,-84.50224,
LARCENY-NON VEHICLE,170471206,02/16/2017,2788 DEFOORS FERRY RD NW,201,,C,33.82114,-84.44713,
LARCENY-FROM VEHICLE,170471292,02/16/2017,590 MORROW LN,407,Mays,H,33.74246,-84.50222,
LARCENY-NON VEHICLE,170471313,02/16/2017,1150 CRESCENT AVE NE,503,Midtown,E,33.78601,-84.38437,
LARCENY-FROM VEHICLE,170471315,02/16/2017,3539 NORTHSIDE PKWY NW @HOUSTONS,202,Randall Mill,A,33.85114,-84.43035,
LARCENY-NON VEHICLE,170471346,02/16/2017,1958 HOLLYWOOD RD NW,203,Riverside,D,33.80908,-84.47235,
BURGLARY-RESIDENCE,170471379,02/16/2017,145 FLAT SHOALS AVE SE,606,Reynoldstown,N,33.74982,-84.35481,
LARCENY-FROM VEHICLE,170471400,02/16/2017,1057 PONCE DE LEON AVE NE,601,Poncey-Highland,N,33.77374,-84.35278,
LARCENY-NON VEHICLE,170471440,02/16/2017,6000 N TERMINAL PKWY,706,,,33.64086,-84.44473,
RAPE,170471513,02/16/2017,1444 LUCILE AVE SW @APS KIPP STRIVE CHR,404,Westview,T,33.74253,-84.43524,
LARCENY-FROM VEHICLE,170471602,02/16/2017,4499 E BROOKHAVEN RD,209,Brookhaven,B,33.87757,-84.34846,
LARCENY-NON VEHICLE,170471623,02/16/2017,1801 HOWELL MILL RD NW,204,Berkeley Park,D,33.80388,-84.41278,
BURGLARY-NONRES,170471681,02/16/2017,396 PIEDMONT AVE NE,509,Downtown,M,33.76526,-84.38216,
RAPE,170471740,02/16/2017,1914 VOLBERG ST NW,204,Underwood Hills,D,33.80759,-84.42175,
AGG ASSAULT,170471785,02/16/2017,677 ANTONE ST NW,207,Berkeley Park,D,33.79826,-84.4102,
BURGLARY-RESIDENCE,170471848,02/16/2017,3746 MAYS XING SW,407,Fairburn Mays,H,33.73391,-84.51284,
LARCENY-NON VEHICLE,170471897,02/16/2017,3145 PEACHTREE RD NE,206,Buckhead Village,B,33.84026,-84.37738,
LARCENY-NON VEHICLE,170471929,02/16/2017,2525 PIEDMONT RD NE @HOME DEPOT,211,Lindbergh/Morosgo,B,33.824,-84.36521,
BURGLARY-RESIDENCE,170471932,02/16/2017,1754 RICHMOND CIR SE,307,Lakewood Heights,Y,33.70698,-84.3745,
LARCENY-NON VEHICLE,170472160,02/16/2017,650 PONCE DE LEON AVE NE,506,Midtown,E,33.77469,-84.36561,
LARCENY-NON VEHICLE,170472219,02/16/2017,3330 PIEDMONT RD NE ,208,Buckhead Forest,B,33.84564,-84.37462,
AUTO THEFT,170472267,02/16/2017,2965 LARCHMONT CT NW,112,Collier Heights,I,33.765,-84.48475,
LARCENY-NON VEHICLE,170472391,02/16/2017,270 FAIRBURN RD NW,111,Adamsville,H,33.76266,-84.50315,
LARCENY-NON VEHICLE,170472418,02/16/2017,850 OAK ST SW @WEST END MALL,401,West End,T,33.74057,-84.4168,
BURGLARY-RESIDENCE,170472485,02/16/2017,986 BILLINGS AVE SE,308,Thomasville Heights,Z,33.69986,-84.35726,
LARCENY-FROM VEHICLE,170472511,02/16/2017,842 LAKE AVE NE,602,Inman Park,N,33.76004,-84.35986,
AUTO THEFT,170472532,02/16/2017,85 MOUNT ZION RD SE,312,Glenrose Heights,Z,33.67269,-84.38678,
LARCENY-FROM VEHICLE,170472559,02/16/2017,288 OAKLAND AVE SE ,605,Grant Park,W,33.74662,-84.37476,
LARCENY-FROM VEHICLE,170472576,02/16/2017,600 PONCE DE LEON AVE NE,506,Midtown,E,33.77376,-84.36722,
LARCENY-NON VEHICLE,170472688,02/16/2017,2020 BOLTON RD NW,203,Riverside,D,33.81125,-84.47594,
LARCENY-NON VEHICLE,170472722,02/16/2017,2064 CAMPBELLTON RD SW,410,Campbellton Road,R,33.70653,-84.45693,
BURGLARY-RESIDENCE,170472742,02/16/2017,1142 PORTLAND AVE SE,607,Ormewood Park,W,33.73964,-84.35029,
LARCENY-NON VEHICLE,170472841,02/16/2017,365 CLEVELAND AVE SE @SOUTHEAST ATLANTA,312,Rosedale Heights,Z,33.67953,-84.37899,
BURGLARY-RESIDENCE,170472912,02/16/2017,2909 CAMPBELLTON RD SW,409,Southwest,R,33.69869,-84.48265,
LARCENY-NON VEHICLE,170472955,02/16/2017,1720 MARTIN L KING JR DR SW,104,Mozley Park,K,33.75083,-84.44341,
ROBBERY-RESIDENCE,170472972,02/16/2017,1278 CAHABA DR SW,408,Venetian Hills,S,33.71981,-84.44807,
LARCENY-NON VEHICLE,170472979,02/16/2017,2832 GLENWOOD AVE SE,611,East Lake,O,33.73959,-84.2949,
LARCENY-FROM VEHICLE,170472981,02/16/2017,279 ELMIRA PL NE,608,Candler Park,N,33.76188,-84.34667,
BURGLARY-RESIDENCE,170472998,02/16/2017,4052 SUNSET DR SW;,412,Ben Hill Terrace,P,33.69806,-84.5208,
AUTO THEFT,170473000,02/16/2017,180 UNIVERSITY AVE SW,302,Pittsburgh,V,33.72164,-84.39375,
LARCENY-FROM VEHICLE,170473049,02/16/2017,1745 PEACHTREE ST NE,207,Brookwood Hills,E,33.8018,-84.39187,
LARCENY-FROM VEHICLE,170473081,02/16/2017,1005HEMPHILL AVE NW ,501,Home Park,E,33.7816,-84.40423,
LARCENY-FROM VEHICLE,170473117,02/16/2017,2414 MARIETTA BLVD NW,203,Bolton,D,33.82161,-84.45646,
LARCENY-FROM VEHICLE,170473121,02/16/2017,3861 ROSWELL RD NE,209,North Buckhead,B,33.8596,-84.37979,
LARCENY-FROM VEHICLE,170473135,02/16/2017,1600 PIEDMONT AVE NE,213,Piedmont Heights,F,33.79816,-84.36838,
ROBBERY-PEDESTRIAN,170473156,02/16/2017,3 JOSEPH E LOWERY BLVD SW,104,Vine City,L,33.7548,-84.41685,
ROBBERY-PEDESTRIAN,170473167,02/16/2017,903 MYRTLE ST NE,505,Midtown,E,33.7791,-84.37952,
LARCENY-FROM VEHICLE,170473171,02/16/2017,250 AMAL DR SW,307,Betmar LaVilla,Y,33.70588,-84.39604,
LARCENY-FROM VEHICLE,170473192,02/16/2017,1495 CHATTAHOOCHEE AVE,203,Underwood Hills,D,33.80887,-84.43622,
AUTO THEFT,170473203,02/16/2017,1425 JOSEPH E BOONE BLVD NW,107,Grove Park,J,33.76385,-84.43455,
LARCENY-NON VEHICLE,170473241,02/16/2017,165 JESSE HILL JR DR SE,511,Downtown,M,33.75018,-84.38483,
LARCENY-FROM VEHICLE,170473292,02/16/2017,135 ANDREW YOUNG INTERNA BLVD NW,508,Downtown,M,33.76002,-84.39178,
LARCENY-FROM VEHICLE,170473319,02/16/2017,396 TANNER ST SE,604,Sweet Auburn,M,33.75374,-84.3757,
LARCENY-FROM VEHICLE,170460143,02/15/2017,1740 DEFOOR PL NW,204,Underwood Hills,D,33.80272,-84.42158,
AGG ASSAULT,170460268,02/15/2017,218 MAPLE ST NW,102,Vine City,L,33.76058,-84.40547,
AUTO THEFT,170460488,02/15/2017,884 OAKHILL AVE SW,301,Adair Park,V,33.73084,-84.40909,
LARCENY-FROM VEHICLE,170460658,02/15/2017,1163 OAKCREST DR SW,406,Magnum Manor,I,33.72425,-84.48984,
LARCENY-FROM VEHICLE,170460695,02/15/2017,825 ASHLAND AVE NE,602,Inman Park,N,33.75772,-84.36082,
LARCENY-FROM VEHICLE,170460776,02/15/2017,1235 SHANTER TRL SW;,409,Horseshoe Community,I,33.72194,-84.49991,
AGG ASSAULT,170460828,02/15/2017,232 FORSYTH ST SW @GREYHOUND BUS DEPOT,512,Downtown,M,33.74852,-84.39636,
LARCENY-FROM VEHICLE,170460832,02/15/2017,226 COURTLAND ST NE,509,Downtown,M,33.76051,-84.38429,
AUTO THEFT,170460846,02/15/2017,1356 HEIGHTS PARK DR SE,607,Custer/McDonough/Guice,W,33.71641,-84.35087,
ROBBERY-PEDESTRIAN,170460859,02/15/2017,212 HARWELL PL NW,112,Collier Heights,I,33.78081,-84.49242,
LARCENY-FROM VEHICLE,170460900,02/15/2017,204 MOURY AVE SW,305,The Villages at Carver,Y,33.71678,-84.39291,
AUTO THEFT,170460907,02/15/2017,345 MURRAY HILL AVE NE,610,Kirkwood,O,33.7632,-84.31636,
LARCENY-FROM VEHICLE,170460939,02/15/2017,556 NORTHSIDE DR SW,303,Pittsburgh,V,33.74007,-84.40778,
AUTO THEFT,170460961,02/15/2017,1994 BENT CREEK WAY SW;,410,Campbellton Road,R,33.7011,-84.46631,
BURGLARY-NONRES,170461002,02/15/2017,1049 JUNIPER ST NE,503,Midtown,E,33.78328,-84.38196,
BURGLARY-RESIDENCE,170461026,02/15/2017,1191 WINDSOR ST SW,302,Pittsburgh,V,33.72242,-84.3987,
LARCENY-FROM VEHICLE,170461042,02/15/2017,826 MARIETTA ST NW,504,Marietta Street Artery,E,33.77477,-84.4067,
ROBBERY-COMMERCIAL,170461065,02/15/2017,2630 MARTIN L KING JR DR SW,405,Harland Terrace,I,33.75377,-84.47405,
LARCENY-NON VEHICLE,170461142,02/15/2017,1331 CAMPBELLTON RD SW,403,Venetian Hills,S,33.71561,-84.43185,
LARCENY-FROM VEHICLE,170461154,02/15/2017,1061 REGIS RD SE,308,Leila Valley,Z,33.69035,-84.35312,
LARCENY-FROM VEHICLE,170461173,02/15/2017,1138 SAINT LOUIS PL NE,601,Atkins Park,F,33.77647,-84.35011,
AUTO THEFT,170461270,02/15/2017,586 SHANNON DR. SW,301,Capitol View Manor,X,33.71701,-84.40683,
BURGLARY-RESIDENCE,170461388,02/15/2017,1411 GLENWOOD AVE SE,612,East Atlanta,W,33.73991,-84.34127,
LARCENY-NON VEHICLE,170461554,02/15/2017,1380 ATLANTIC DR NW,501,Atlantic Station,E,33.79282,-84.39779,
BURGLARY-RESIDENCE,170461589,02/15/2017,630 SMITH ST SW,303,Mechanicsville,V,33.73776,-84.40062,
AGG ASSAULT,170461609,02/15/2017,290 ANDERSON AVE NW,108,Dixie Hills,J,33.76292,-84.45142,
BURGLARY-RESIDENCE,170461628,02/15/2017,3372 BOBOLINK CIR SW,406,West Manor,I,33.73587,-84.4988,
BURGLARY-RESIDENCE,170461679,02/15/2017,1991 DELOWE DR SW,410,Campbellton Road,R,33.70103,-84.45746,
LARCENY-FROM VEHICLE,170461755,02/15/2017,400 MERRITTS AVE NE @CENTRAL PARK,603,Old Fourth Ward,M,33.76901,-84.37444,
LARCENY-FROM VEHICLE,170461760,02/15/2017,701 HAMILTON E HOLMES DR NW,109,Center Hill,J,33.77434,-84.47318,
LARCENY-FROM VEHICLE,170461869,02/15/2017,3500 PEACHTREE RD NE,208,North Buckhead,B,33.85248,-84.36058,
AUTO THEFT,170461878,02/15/2017,1522 HUBER ST NW,203,Blandtown,D,33.7965,-84.42492,
LARCENY-FROM VEHICLE,170461880,02/15/2017,275 DECATUR ST SE,604,Sweet Auburn,M,33.74936,-84.38033,
LARCENY-NON VEHICLE,170461881,02/15/2017,2452 MOROSGO WAY NE,211,Lindbergh/Morosgo,B,33.82295,-84.36559,
BURGLARY-NONRES,170461898,02/15/2017,1085 LINDBERGH DR NE ,212,Lindridge/Martin Manor,F,33.81842,-84.35253,
LARCENY-FROM VEHICLE,170461901,02/15/2017,2524 MARTIN L KING JR DR SW,405,Harland Terrace,I,33.75285,-84.47033,
LARCENY-FROM VEHICLE,170462010,02/15/2017,21 THIRKELD AVE SW @APS CAMPBELL BLDG,305,South Atlanta,Y,33.71509,-84.38861,
BURGLARY-RESIDENCE,170462061,02/15/2017,594 WIMBLEDON RD NE,212,Piedmont Heights,F,33.80656,-84.36741,
LARCENY-FROM VEHICLE,170462266,02/15/2017,850 OAT ST SW,401,West End,T,33.73824,-84.41408,
LARCENY-FROM VEHICLE,170462295,02/15/2017,4472 CAMPBELLTON RD SW,413,Elmco Estates,P,33.69572,-84.53464,
LARCENY-FROM VEHICLE,170462402,02/15/2017,1467 MONROE DR NE,213,Morningside/Lenox Park,F,33.7946,-84.36621,
ROBBERY-PEDESTRIAN,170462457,02/15/2017,50 ALABAMA ST SW,511,Downtown,M,33.75194,-84.38964,
LARCENY-NON VEHICLE,170462459,02/15/2017,1801 HOWELL MILL RD NW,204,Berkeley Park,D,33.80388,-84.41278,
AGG ASSAULT,170462506,02/15/2017,2591 ETHERIDGE DR NW,113,Carey Park,G,33.7881,-84.47292,
BURGLARY-RESIDENCE,170462553,02/15/2017,92 GOLF CIR NE,502,Ansley Park,E,33.80212,-84.37708,
ROBBERY-PEDESTRIAN,170462582,02/15/2017,140 PINE ST NE ,509,Downtown,M,33.7678,-84.38297,
AGG ASSAULT,170462601,02/15/2017,2448 CHESHIRE BRIDGE RD NE,212,Lindridge/Martin Manor,F,33.82169,-84.35201,
BURGLARY-RESIDENCE,170462611,02/15/2017,865 PENN AVE NE,505,Midtown,E,33.77829,-84.37819,
AUTO THEFT,170462653,02/15/2017,1983 HOWELL MILL RD NW,205,Channing Valley,C,33.80884,-84.41276,
LARCENY-FROM VEHICLE,170462657,02/15/2017,2095 METROPOLITAN PKWY SW,306,Sylvan Hills,X,33.69753,-84.4084,
ROBBERY-COMMERCIAL,170462659,02/15/2017,906 RALPH D ABERNATHY BLVD SW,401,West End,T,33.73794,-84.41735,
AUTO THEFT,170462715,02/15/2017,1465 CHATTAHOOCHEE AVE NW,204,Underwood Hills,D,33.80787,-84.43494,
LARCENY-FROM VEHICLE,170462721,02/15/2017,60 ANDREW YOUNG INTERNA BLVD NE,509,Downtown,M,33.75991,-84.38522,
AUTO THEFT,170462722,02/15/2017,119 PHARR RD NW,206,Peachtree Heights West,B,33.8368,-84.38533,
ROBBERY-PEDESTRIAN,170462746,02/15/2017,232 FORSYTH ST SW,512,Downtown,M,33.74852,-84.39636,
LARCENY-FROM VEHICLE,170462756,02/15/2017,327 MEMORIAL DR SE,605,Grant Park,W,33.74656,-84.37679,
LARCENY-NON VEHICLE,170462760,02/15/2017,1801 HOWELL MILL RD NW,204,Berkeley Park,D,33.80388,-84.41278,
AUTO THEFT,170462769,02/15/2017,3365 PIEDMONT RD NE,208,North Buckhead,B,33.84687,-84.37284,
LARCENY-NON VEHICLE,170462816,02/15/2017,1801 HOWELL MILL RD NW,204,Berkeley Park,D,33.80388,-84.41278,
LARCENY-FROM VEHICLE,170462830,02/15/2017,201 MOURY AVE SW,305,The Villages at Carver,Y,33.71691,-84.39276,
LARCENY-NON VEHICLE,170462834,02/15/2017,835 MARTIN L KING JR DR NW,102,Vine City,L,33.75504,-84.41457,
AUTO THEFT,170462837,02/15/2017,1465 CHATTAHOOCHEE AVE NW,204,Underwood Hills,D,33.80787,-84.43494,
LARCENY-FROM VEHICLE,170462838,02/15/2017,1201 COLLIER RD NW,204,,C,33.81162,-84.425,
LARCENY-FROM VEHICLE,170462869,02/15/2017,339 14TH ST NW,501,Home Park,E,33.78627,-84.39817,
LARCENY-FROM VEHICLE,170462890,02/15/2017,1700 NORTHSIDE DR NW,207,Berkeley Park,D,33.80077,-84.40869,
RAPE,170462901,02/15/2017,600 MARTIN ST SE,304,Summerhill,V,33.73817,-84.38376,
LARCENY-FROM VEHICLE,170462908,02/15/2017,1402 N HIGHLAND AVE NE,213,Morningside/Lenox Park,F,33.79285,-84.35203,
LARCENY-FROM VEHICLE,170462944,02/15/2017,521 EDGEWOOD AVE NE,604,Old Fourth Ward,M,33.75397,-84.37055,
ROBBERY-PEDESTRIAN,170462956,02/15/2017,75 MARIETTA ST NW,508,Downtown,M,33.75625,-84.39146,
ROBBERY-PEDESTRIAN,170462987,02/15/2017,1999 SANDCREEK DR SW,412,Sandlewood Estates,P,33.70137,-84.54591,
LARCENY-FROM VEHICLE,170442846,02/14/2017,645 SHELTON AVE SW,301,Adair Park,V,33.73495,-84.40898,
LARCENY-FROM VEHICLE,170450211,02/14/2017,2841 GREENBRIAR PKWY SW @GREENBRIAR MALL,411,Greenbriar,R,33.68677,-84.49773,
BURGLARY-NONRES,170450318,02/14/2017,1036 LINDBERGH DR NE,212,Lindridge/Martin Manor,F,33.81937,-84.35356,
BURGLARY-NONRES,170450438,02/14/2017,2740 CAMPBELLTON RD SW;,410,Campbellton Road,R,33.70142,-84.47804,
AUTO THEFT,170450586,02/14/2017,712 SYMPHONY LN NW,112,Collier Heights,I,33.7742,-84.48273,
AUTO THEFT,170450595,02/14/2017,1644 WOODLAND AVE SE,607,Custer/McDonough/Guice,W,33.70929,-84.35228,
AUTO THEFT,170450643,02/14/2017,259 RICHARDSON ST SW,303,Mechanicsville,V,33.74083,-84.39654,
BURGLARY-NONRES,170450650,02/14/2017,608 RALPH MCGILL BLVD NE,603,Old Fourth Ward,M,33.76447,-84.3672,
LARCENY-FROM VEHICLE,170450674,02/14/2017,1147 UNIVERSITY DR NE,213,Morningside/Lenox Park,F,33.79129,-84.34974,
BURGLARY-RESIDENCE,170450700,02/14/2017,957 BURNS DR SW,306,Sylvan Hills,X,33.71214,-84.4196,
AUTO THEFT,170450726,02/14/2017,2184 BEECHER CIR SW,406,Beecher Hills,I,33.73371,-84.46007,
LARCENY-FROM VEHICLE,170450749,02/14/2017,230 LOCUST ST NE,610,Kirkwood,O,33.75924,-84.325,
AGG ASSAULT,170450760,02/14/2017,851 MCDANIEL ST SW,302,Pittsburgh,V,33.73171,-84.40191,
LARCENY-FROM VEHICLE,170450858,02/14/2017,745 FOUNTAINHEAD LN NE,211,Lindbergh/Morosgo,B,33.81912,-84.36408,
AUTO THEFT,170451033,02/14/2017,238 CHICAMAUGA AVE SW,104,Mozley Park,K,33.7487,-84.43181,
LARCENY-FROM VEHICLE,170451084,02/14/2017,1536 WESTWOOD AVE SW,404,Westview,T,33.73835,-84.43818,
ROBBERY-PEDESTRIAN,170451089,02/14/2017,840 CENTER HILL AVE NW,109,Center Hill,J,33.77796,-84.46426,
LARCENY-NON VEHICLE,170451107,02/14/2017,732 CASCADE AVE SW,402,West End,T,33.73534,-84.43623,
LARCENY-FROM VEHICLE,170451177,02/14/2017,201 MOURY AVE SW;,305,The Villages at Carver,Y,33.71691,-84.39276,
LARCENY-FROM VEHICLE,170451222,02/14/2017,1453 FAIRVIEW RD,608,Druid Hills,N,33.77233,-84.33975,
LARCENY-NON VEHICLE,170451227,02/14/2017,3393 PEACHTREE RD NE @LENOX MALL,210,Lenox,B,33.84676,-84.36212,
LARCENY-FROM VEHICLE,170451247,02/14/2017,1170 COLLIER RD NW,204,Underwood Hills,D,33.8109,-84.4259,
LARCENY-NON VEHICLE,170451284,02/14/2017,590 CASCADE AVE SW,402,West End,T,33.73812,-84.43276,
LARCENY-FROM VEHICLE,170451295,02/14/2017,2115 PIEDMONT RD NE ,212,Morningside/Lenox Park,F,33.81235,-84.36578,
LARCENY-FROM VEHICLE,170451307,02/14/2017,2470 CHESHIRE BRIDGE RD NE,212,Lindridge/Martin Manor,F,33.82205,-84.35239,
AUTO THEFT,170451337,02/14/2017,2891 LAKEWOOD AVE SW,306,Sylvan Hills,X,33.69731,-84.41122,
LARCENY-NON VEHICLE,170451361,02/14/2017,800 GLENWOOD AVE SE,605,Grant Park,W,33.74234,-84.36002,
LARCENY-FROM VEHICLE,170451383,02/14/2017,188 14TH ST NE,502,Midtown,E,33.78663,-84.38139,
BURGLARY-RESIDENCE,170451477,02/14/2017,56 VANIRA AVE SE;,304,Peoplestown,V,33.72961,-84.38603,
LARCENY-NON VEHICLE,170451531,02/14/2017,650 PONCE DE LEON AVE NE,506,Midtown,E,33.77352,-84.36667,
BURGLARY-RESIDENCE,170451586,02/14/2017,153 TONAWANDA DR SE,310,Browns Mill Park,Z,33.68368,-84.38481,
LARCENY-NON VEHICLE,170451596,02/14/2017,1801 HOWELL MILL RD NW,204,Berkeley Park,D,33.80388,-84.41278,
ROBBERY-PEDESTRIAN,170451605,02/14/2017,1953 DONALD LEE HOLLOWELL PKWY,110,Grove Park,J,33.7785,-84.45037,
LARCENY-FROM VEHICLE,170451686,02/14/2017,507 JOSEPH E LOWERY BLVD SW ,401,West End,T,33.74097,-84.41809,
AUTO THEFT,170451699,02/14/2017,556 NORTHSIDE DR SW,303,Pittsburgh,V,33.74007,-84.40778,
LARCENY-NON VEHICLE,170451767,02/14/2017,219 LITTLE ST SE,304,Summerhill,V,33.73294,-84.38063,
LARCENY-NON VEHICLE,170451782,02/14/2017,3393 PEACHTREE RD NE ,210,Lenox,B,33.84676,-84.36212,
LARCENY-NON VEHICLE,170451824,02/14/2017,2841 GREENBRIAR PKWY SW @GREENBRIAR MALL,411,Greenbriar,R,33.68677,-84.49773,
LARCENY-FROM VEHICLE,170452062,02/14/2017,94 HIGHLAND DR NE,211,Peachtree Park,B,33.84451,-84.3649,
LARCENY-NON VEHICLE,170452083,02/14/2017,1371 MARKET ST,501,Atlantic Station,E,33.7921,-84.39466,
LARCENY-NON VEHICLE,170452104,02/14/2017,165 BAILEY ST SW,101,Atlanta University Center,T,33.75087,-84.40536,
LARCENY-NON VEHICLE,170452111,02/14/2017,455 NORTH AVE NE,603,Old Fourth Ward,M,33.77066,-84.37225,
LARCENY-FROM VEHICLE,170452194,02/14/2017,417 10TH ST NE,502,Midtown,E,33.78168,-84.37345,
AGG ASSAULT,170452261,02/14/2017,140 MOUNT ZION RD SE,312,Glenrose Heights,Z,33.67287,-84.38483,
LARCENY-NON VEHICLE,170452331,02/14/2017,2 PARK PL NE,510,Downtown,M,33.75473,-84.38852,
AGG ASSAULT,170452375,02/14/2017,1075 PEACHTREE ST NE,503,Midtown,E,33.78363,-84.38295,
LARCENY-NON VEHICLE,170452415,02/14/2017,464 ALLENDALE DR SE,611,East Lake,O,33.73986,-84.29505,
BURGLARY-RESIDENCE,170452590,02/14/2017,4045 BLANTON AVE SW,413,Fairburn,P,33.69111,-84.52094,
BURGLARY-RESIDENCE,170452628,02/14/2017,251 POLAR ROCK RD SW,310,Polar Rock,Z,33.69612,-84.39748,
BURGLARY-RESIDENCE,170452705,02/14/2017,3566 FAIRBURN PL NW,114,Fairburn Heights,H,33.77163,-84.50425,
LARCENY-FROM VEHICLE,170452728,02/14/2017,180 HARRIETT ST SE,305,South Atlanta,Y,33.71601,-84.38265,
LARCENY-FROM VEHICLE,170452730,02/14/2017,3655 ROSWELL RD NE,209,Tuxedo Park,A,33.85418,-84.38267,
AUTO THEFT,170452832,02/14/2017,22 STILLMAN ST SE,307,Lakewood Heights,Y,33.70373,-84.38108,
LARCENY-NON VEHICLE,170452887,02/14/2017,2001 JAMES JACKSON PKWY NW,203,Riverside,D,33.81063,-84.47569,
LARCENY-FROM VEHICLE,170452920,02/14/2017,948 LUCILE AVE SW,104,Harris Chiles,T,33.74209,-84.41849,
LARCENY-FROM VEHICLE,170452977,02/14/2017,1893 PIEDMONT RD NE,212,Morningside/Lenox Park,F,33.8092,-84.36541,
AGG ASSAULT,170453014,02/14/2017,2500 CENTER ST NW,113,Carey Park,G,33.78999,-84.47156,
LARCENY-FROM VEHICLE,170453037,02/14/2017,980 LANIER BLVD NE,601,Virginia Highland,F,33.78148,-84.35308,
ROBBERY-PEDESTRIAN,170453075,02/14/2017,470 FLAT SHOALS AVE SE,612,East Atlanta,W,33.74128,-84.34622,
AUTO THEFT,170453085,02/14/2017,428 EDGEWOOD AVE NE,604,Sweet Auburn,M,33.75459,-84.37367,
HOMICIDE,170442700014,02/14/2017,3651 CROFT PL NW,114,Carroll Heights,H,33.7755,-84.50701,
HOMICIDE,170390884015,02/14/2017,1251 NORTH AVE NW,106,Bankhead,K,33.7683,-84.42865,
BURGLARY-NONRES,170432467,02/13/2017,2763 METROPOLITAN PKWY SW,311,Hammond Park,X,33.67986,-84.40816,
ROBBERY-PEDESTRIAN,170440055,02/13/2017,410 W LAKE AVE NW,107,Grove Park,J,33.7665,-84.44107,
LARCENY-FROM VEHICLE,170440234,02/13/2017,809 WOODROW ST SW,301,Oakland City,S,33.72374,-84.41451,
ROBBERY-PEDESTRIAN,170440303,02/13/2017,3440 BOULDER PARK DR SW,407,Mays,H,33.75004,-84.50063,
LARCENY-FROM VEHICLE,170440344,02/13/2017,1812 PEACHTREE ST,207,Ardmore,E,33.80426,-84.39375,
LARCENY-FROM VEHICLE,170440402,02/13/2017,1176 CHATTAHOOCHEE AVE NW,203,Blandtown,D,33.80058,-84.42561,
BURGLARY-NONRES,170440403,02/13/2017,4340 ROSWELL RD NE,209,East Chastain Park,B,33.8738,-84.38108,
BURGLARY-NONRES,170440543,02/13/2017,1380 ATLANTIC DR NW @PUBLIX - ATLANTIC,501,Atlantic Station,E,33.79282,-84.39779,
AUTO THEFT,170440666,02/13/2017,3200 STONE RD SW,411,Greenbriar,R,33.6697,-84.49403,
BURGLARY-RESIDENCE,170440693,02/13/2017,725 PONCE DE LEON AVE NE,602,Poncey-Highland,N,33.77296,-84.36414,
LARCENY-FROM VEHICLE,170440713,02/13/2017,3315 ROSWELL RD NE,208,Buckhead Forest,B,33.84531,-84.38051,
LARCENY-FROM VEHICLE,170440784,02/13/2017,675 HOLDERNESS ST SW,402,West End,T,33.73669,-84.42804,
AUTO THEFT,170440800,02/13/2017,2745 OLD HAPEVILLE RD SW,311,Glenrose Heights,Z,33.67992,-84.39348,
LARCENY-FROM VEHICLE,170440815,02/13/2017,1800 MURPHY AVE SW,306,Sylvan Hills,X,33.70599,-84.4266,
LARCENY-NON VEHICLE,170440895,02/13/2017,1717 LAKEWOOD AVE SE,307,Lakewood Heights,Y,33.70678,-84.38031,
LARCENY-FROM VEHICLE,170440925,02/13/2017,3755 CARMIA DR SW,414,Princeton Lakes,P,33.6569,-84.51004,
LARCENY-FROM VEHICLE,170440945,02/13/2017,641 NORTH AVE NE,603,Old Fourth Ward,M,33.77103,-84.36618,
LARCENY-FROM VEHICLE,170440956,02/13/2017,1715 NORTHSIDE DR NW,207,Loring Heights,E,33.80181,-84.4071,
LARCENY-NON VEHICLE,170440967,02/13/2017,85 PEACHTREE PL NE,503,Midtown,E,33.78068,-84.38484,
LARCENY-FROM VEHICLE,170440982,02/13/2017,9106 CHASTAIN DR NE,209,East Chastain Park,B,33.86587,-84.38442,
AUTO THEFT,170440986,02/13/2017,2386 PAUL AVE NW,203,Riverside,D,33.81991,-84.47522,
LARCENY-FROM VEHICLE,170441047,02/13/2017,58 SHERIDAN DR NE,206,Garden Hills,B,33.83244,-84.38241,
LARCENY-FROM VEHICLE,170441070,02/13/2017,1530 DEKALB AVE NE,608,Candler Park,N,33.76282,-84.33754,
LARCENY-FROM VEHICLE,170441127,02/13/2017,1001 PIEDMONT AVE NE,502,Midtown,E,33.78202,-84.38022,
LARCENY-FROM VEHICLE,170441129,02/13/2017,3657 MARTIN L KING JR DR NW,111,Adamsville,H,33.76208,-84.5076,
LARCENY-FROM VEHICLE,170441140,02/13/2017,1001 PONCE DE LEON AVE NE ,602,Poncey-Highland,N,33.7734,-84.35467,
LARCENY-FROM VEHICLE,170441154,02/13/2017,1529 PIEDMONT AVE NE,213,Morningside/Lenox Park,F,33.79625,-84.36946,
ROBBERY-PEDESTRIAN,170441183,02/13/2017,1085 KATHERWOOD DR SW,306,Sylvan Hills,X,33.71026,-84.42366,
BURGLARY-RESIDENCE,170441246,02/13/2017,1900 EVANS DR SW,306,Sylvan Hills,X,33.70251,-84.42119,
LARCENY-FROM VEHICLE,170441254,02/13/2017,1755 WILDWOOD RD NE,213,Morningside/Lenox Park,F,33.80288,-84.34988,
LARCENY-NON VEHICLE,170441264,02/13/2017,2770 DONALD LEE HOLLOWELL PKWY NW,112,Collier Heights,I,33.77845,-84.47857,
LARCENY-NON VEHICLE,170441267,02/13/2017,1801 HOWELL MILL RD NW,204,Berkeley Park,D,33.80388,-84.41278,
LARCENY-FROM VEHICLE,170441352,02/13/2017,886 SAINT CHARLES AVE NE,601,Virginia Highland,F,33.77551,-84.35801,
LARCENY-NON VEHICLE,170441377,02/13/2017,2619 DONALD LEE HOLLOWELL PKWY NW,109,Center Hill,J,33.77579,-84.47254,
LARCENY-FROM VEHICLE,170441378,02/13/2017,3464 ROXBORO RD NE,210,Buckhead Heights,B,33.84914,-84.35478,
LARCENY-FROM VEHICLE,170441382,02/13/2017,1642 MCLENDON AVE NE,608,Candler Park,N,33.76485,-84.333,
AUTO THEFT,170441414,02/13/2017,50 MOUNT ZION RD SE,312,Glenrose Heights,Z,33.67286,-84.38706,
AUTO THEFT,170441451,02/13/2017,666 HAMILTON E HOLMES DR NW,112,Collier Heights,I,33.77319,-84.47382,
